{"id":"19920","ident":"KGAD","type":"small_airport","name":"Northeast Alabama Regional Airport","latitude_deg":"33.972599","longitude_deg":"-86.088996","elevation_ft":"569","continent":"NA","iso_country":"US","iso_region":"US-AL","municipality":"Gadsden","scheduled_service":"no","gps_code":"KGAD","iata_code":"GAD","local_code":"GAD"}
{"id":"19921","ident":"KGAF","type":"small_airport","name":"Hutson Field","latitude_deg":"48.40470123","longitude_deg":"-97.37090302","elevation_ft":"824","continent":"NA","iso_country":"US","iso_region":"US-ND","municipality":"Grafton","scheduled_service":"no","gps_code":"KGAF","iata_code":"GAF","local_code":""}
{"id":"17574","ident":"KGAG","type":"small_airport","name":"Gage Heibeck Airport","latitude_deg":"36.295502","longitude_deg":"-99.776398","elevation_ft":"2223","continent":"NA","iso_country":"US","iso_region":"US-OK","municipality":"Gage","scheduled_service":"no","gps_code":"KGAG","iata_code":"GAG","local_code":"GAG"}
{"id":"19922","ident":"KGAI","type":"small_airport","name":"Montgomery County Airpark","latitude_deg":"39.168301","longitude_deg":"-77.166","elevation_ft":"539","continent":"NA","iso_country":"US","iso_region":"US-MD","municipality":"Gaithersburg","scheduled_service":"no","gps_code":"KGAI","iata_code":"GAI","local_code":"GAI"}
{"id":"19923","ident":"KGAO","type":"small_airport","name":"South Lafourche Leonard Miller Jr Airport","latitude_deg":"29.44479942","longitude_deg":"-90.26110077","elevation_ft":"1","continent":"NA","iso_country":"US","iso_region":"US-LA","municipality":"Galliano","scheduled_service":"no","gps_code":"KGAO","iata_code":"GAO","local_code":""}
{"id":"19924","ident":"KGAS","type":"small_airport","name":"Gallia Meigs Regional Airport","latitude_deg":"38.83409882","longitude_deg":"-82.16339874","elevation_ft":"566","continent":"NA","iso_country":"US","iso_region":"US-OH","municipality":"Gallipolis","scheduled_service":"no","gps_code":"KGAS","iata_code":"GAS","local_code":""}
{"id":"334447","ident":"KGAX","type":"small_airport","name":"Williams Auxiliary Air Field 6","latitude_deg":"32.884669","longitude_deg":"-112.816544","elevation_ft":"NA","continent":"US","iso_country":"US-AZ","iso_region":"Gila Bend","municipality":"no","scheduled_service":"KGAX","gps_code":"GAX","iata_code":"","local_code":""}
{"id":"19925","ident":"KGBD","type":"small_airport","name":"Great Bend Municipal Airport","latitude_deg":"38.34429932","longitude_deg":"-98.85919952","elevation_ft":"1887","continent":"NA","iso_country":"US","iso_region":"US-KS","municipality":"Great Bend","scheduled_service":"no","gps_code":"KGBD","iata_code":"GBD","local_code":"GBD"}
{"id":"19926","ident":"KGBG","type":"small_airport","name":"Galesburg Municipal Airport","latitude_deg":"40.93799973","longitude_deg":"-90.43109894","elevation_ft":"764","continent":"NA","iso_country":"US","iso_region":"US-IL","municipality":"Galesburg","scheduled_service":"no","gps_code":"KGBG","iata_code":"GBG","local_code":"GBG"}
{"id":"19927","ident":"KGBN","type":"small_airport","name":"Gila Bend Air Force Auxiliary Airport","latitude_deg":"32.887501","longitude_deg":"-112.720001","elevation_ft":"883","continent":"NA","iso_country":"US","iso_region":"US-AZ","municipality":"Gila Bend","scheduled_service":"no","gps_code":"KGXF","iata_code":"GXF","local_code":""}
{"id":"19928","ident":"KGBR","type":"small_airport","name":"Walter J. Koladza Airport","latitude_deg":"42.18420029","longitude_deg":"-73.40319824","elevation_ft":"739","continent":"NA","iso_country":"US","iso_region":"US-MA","municipality":"Great Barrington","scheduled_service":"no","gps_code":"KGBR","iata_code":"GBR","local_code":"GBR"}
{"id":"19929","ident":"KGCC","type":"medium_airport","name":"Northeast Wyoming Regional Airport","latitude_deg":"44.3489","longitude_deg":"-105.539001","elevation_ft":"4365","continent":"NA","iso_country":"US","iso_region":"US-WY","municipality":"Gillette","scheduled_service":"yes","gps_code":"KGCC","iata_code":"GCC","local_code":"GCC"}
{"id":"17576","ident":"KGCD","type":"small_airport","name":"Grant County Regional Airport / Ogilvie Field","latitude_deg":"44.404202","longitude_deg":"-118.962997","elevation_ft":"3703","continent":"NA","iso_country":"US","iso_region":"US-OR","municipality":"John Day","scheduled_service":"no","gps_code":"KGCD","iata_code":"JDA","local_code":"GCD"}
{"id":"3550","ident":"KGCK","type":"medium_airport","name":"Garden City Regional Airport","latitude_deg":"37.92750168","longitude_deg":"-100.723999","elevation_ft":"2891","continent":"NA","iso_country":"US","iso_region":"US-KS","municipality":"Garden City","scheduled_service":"yes","gps_code":"KGCK","iata_code":"GCK","local_code":"GCK"}
{"id":"19930","ident":"KGCM","type":"small_airport","name":"Claremore Regional Airport","latitude_deg":"36.29270172","longitude_deg":"-95.479599","elevation_ft":"733","continent":"NA","iso_country":"US","iso_region":"US-OK","municipality":"Claremore","scheduled_service":"no","gps_code":"KGCM","iata_code":"GCM","local_code":""}
{"id":"3551","ident":"KGCN","type":"medium_airport","name":"Grand Canyon National Park Airport","latitude_deg":"35.9524","longitude_deg":"-112.147003","elevation_ft":"6609","continent":"NA","iso_country":"US","iso_region":"US-AZ","municipality":"Grand Canyon - Tusayan","scheduled_service":"yes","gps_code":"KGCN","iata_code":"GCN","local_code":"GCN"}
{"id":"19931","ident":"KGCT","type":"small_airport","name":"Guthrie County Regional Airport","latitude_deg":"41.68780136","longitude_deg":"-94.43520355","elevation_ft":"1230","continent":"NA","iso_country":"US","iso_region":"US-IA","municipality":"Guthrie Center","scheduled_service":"no","gps_code":"KGCT","iata_code":"GCT","local_code":""}
{"id":"19932","ident":"KGCY","type":"small_airport","name":"Greeneville Municipal Airport","latitude_deg":"36.195648","longitude_deg":"-82.811482","elevation_ft":"1608","continent":"NA","iso_country":"US","iso_region":"US-TN","municipality":"Greeneville","scheduled_service":"no","gps_code":"KGCY","iata_code":"GCY","local_code":"GCY"}
{"id":"19933","ident":"KGDB","type":"small_airport","name":"Granite Falls Municipal Airport / Lenzen-Roe Memorial Field","latitude_deg":"44.7533","longitude_deg":"-95.556","elevation_ft":"1047","continent":"NA","iso_country":"US","iso_region":"US-MN","municipality":"Granite Falls","scheduled_service":"no","gps_code":"KGDB","iata_code":"GDB","local_code":""}
{"id":"19934","ident":"KGDJ","type":"small_airport","name":"Granbury Regional Airport","latitude_deg":"32.44440079","longitude_deg":"-97.81690216","elevation_ft":"778","continent":"NA","iso_country":"US","iso_region":"US-TX","municipality":"Granbury","scheduled_service":"no","gps_code":"KGDJ","iata_code":"GDJ","local_code":""}
{"id":"19935","ident":"KGDM","type":"small_airport","name":"Gardner Municipal Airport","latitude_deg":"42.54999924","longitude_deg":"-72.01609802","elevation_ft":"955","continent":"NA","iso_country":"US","iso_region":"US-MA","municipality":"Gardner","scheduled_service":"no","gps_code":"KGDM","iata_code":"GDM","local_code":"GDM"}
{"id":"19936","ident":"KGDV","type":"medium_airport","name":"Dawson Community Airport","latitude_deg":"47.13869858","longitude_deg":"-104.8069992","elevation_ft":"2458","continent":"NA","iso_country":"US","iso_region":"US-MT","municipality":"Glendive","scheduled_service":"no","gps_code":"KGDV","iata_code":"GDV","local_code":"GDV"}
{"id":"19937","ident":"KGDW","type":"small_airport","name":"Gladwin Zettel Memorial Airport","latitude_deg":"43.97060013","longitude_deg":"-84.47499847","elevation_ft":"776","continent":"NA","iso_country":"US","iso_region":"US-MI","municipality":"Gladwin","scheduled_service":"no","gps_code":"KGDW","iata_code":"GDW","local_code":"GDW"}
{"id":"19938","ident":"KGED","type":"small_airport","name":"Delaware Coastal Airport","latitude_deg":"38.689201","longitude_deg":"-75.358902","elevation_ft":"53","continent":"NA","iso_country":"US","iso_region":"US-DE","municipality":"Georgetown","scheduled_service":"no","gps_code":"KGED","iata_code":"GED","local_code":"GED"}
{"id":"3552","ident":"KGEG","type":"medium_airport","name":"Spokane International Airport","latitude_deg":"47.6199","longitude_deg":"-117.533997","elevation_ft":"2376","continent":"NA","iso_country":"US","iso_region":"US-WA","municipality":"Spokane","scheduled_service":"yes","gps_code":"KGEG","iata_code":"GEG","local_code":"GEG"}
{"id":"19939","ident":"KGEO","type":"small_airport","name":"Brown County Airport","latitude_deg":"38.88190079","longitude_deg":"-83.88269806","elevation_ft":"958","continent":"NA","iso_country":"US","iso_region":"US-OH","municipality":"Georgetown","scheduled_service":"no","gps_code":"KGEO","iata_code":"GEO","local_code":""}
{"id":"19940","ident":"KGEU","type":"small_airport","name":"Glendale Municipal Airport","latitude_deg":"33.52690125","longitude_deg":"-112.2949982","elevation_ft":"1071","continent":"NA","iso_country":"US","iso_region":"US-AZ","municipality":"Glendale","scheduled_service":"no","gps_code":"KGEU","iata_code":"GEU","local_code":""}
{"id":"19941","ident":"KGEV","type":"small_airport","name":"Ashe County Airport","latitude_deg":"36.432418","longitude_deg":"-81.418519","elevation_ft":"3180","continent":"NA","iso_country":"US","iso_region":"US-NC","municipality":"Jefferson","scheduled_service":"no","gps_code":"KGEV","iata_code":"GEV","local_code":""}
{"id":"19942","ident":"KGEY","type":"small_airport","name":"South Big Horn County Airport","latitude_deg":"44.51679993","longitude_deg":"-108.0830002","elevation_ft":"3939","continent":"NA","iso_country":"US","iso_region":"US-WY","municipality":"Greybull","scheduled_service":"no","gps_code":"KGEY","iata_code":"GEY","local_code":"GEY"}
{"id":"19943","ident":"KGEZ","type":"small_airport","name":"Shelbyville Municipal Airport","latitude_deg":"39.586044","longitude_deg":"-85.804024","elevation_ft":"803","continent":"NA","iso_country":"US","iso_region":"US-IN","municipality":"Shelbyville","scheduled_service":"no","gps_code":"KGEZ","iata_code":"GEZ","local_code":""}
{"id":"17593","ident":"KGFA","type":"heliport","name":"Malmstrom Air Force Base","latitude_deg":"47.50469971","longitude_deg":"-111.1869965","elevation_ft":"3472","continent":"NA","iso_country":"US","iso_region":"US-MT","municipality":"Great Falls","scheduled_service":"no","gps_code":"KGFA","iata_code":"GFA","local_code":"GFA"}
{"id":"3553","ident":"KGFK","type":"medium_airport","name":"Grand Forks International Airport","latitude_deg":"47.949299","longitude_deg":"-97.176102","elevation_ft":"845","continent":"NA","iso_country":"US","iso_region":"US-ND","municipality":"Grand Forks","scheduled_service":"yes","gps_code":"KGFK","iata_code":"GFK","local_code":"GFK"}
{"id":"3554","ident":"KGFL","type":"medium_airport","name":"Floyd Bennett Memorial Airport","latitude_deg":"43.34120178","longitude_deg":"-73.61029816","elevation_ft":"328","continent":"NA","iso_country":"US","iso_region":"US-NY","municipality":"Glens Falls","scheduled_service":"no","gps_code":"KGFL","iata_code":"GFL","local_code":"GFL"}
{"id":"19944","ident":"KGFZ","type":"small_airport","name":"Greenfield Municipal Airport","latitude_deg":"41.32699966","longitude_deg":"-94.4457016","elevation_ft":"1364","continent":"NA","iso_country":"US","iso_region":"US-IA","municipality":"Greenfield","scheduled_service":"no","gps_code":"KGFZ","iata_code":"GFZ","local_code":""}
{"id":"19945","ident":"KGGE","type":"small_airport","name":"Georgetown County Airport","latitude_deg":"33.31169891","longitude_deg":"-79.31960297","elevation_ft":"39","continent":"NA","iso_country":"US","iso_region":"US-SC","municipality":"Georgetown","scheduled_service":"no","gps_code":"KGGE","iata_code":"GGE","local_code":"GGE"}
{"id":"19946","ident":"KGGF","type":"small_airport","name":"Grant Municipal Airport","latitude_deg":"40.86949921","longitude_deg":"-101.7330017","elevation_ft":"3425","continent":"NA","iso_country":"US","iso_region":"US-NE","municipality":"Grant","scheduled_service":"no","gps_code":"KGGF","iata_code":"GGF","local_code":""}
{"id":"3555","ident":"KGGG","type":"medium_airport","name":"East Texas Regional Airport","latitude_deg":"32.38399887","longitude_deg":"-94.71150208","elevation_ft":"365","continent":"NA","iso_country":"US","iso_region":"US-TX","municipality":"Longview","scheduled_service":"yes","gps_code":"KGGG","iata_code":"GGG","local_code":"GGG"}
{"id":"19947","ident":"KGGI","type":"small_airport","name":"Grinnell Regional Airport","latitude_deg":"41.70991","longitude_deg":"-92.736052","elevation_ft":"1008","continent":"NA","iso_country":"US","iso_region":"US-IA","municipality":"Grinnell","scheduled_service":"no","gps_code":"KGGI","iata_code":"GGI","local_code":""}
{"id":"19948","ident":"KGGP","type":"small_airport","name":"Logansport Cass County Airport","latitude_deg":"40.711201","longitude_deg":"-86.374901","elevation_ft":"738","continent":"NA","iso_country":"US","iso_region":"US-IN","municipality":"Logansport","scheduled_service":"no","gps_code":"KGGP","iata_code":"GGP","local_code":""}
{"id":"3556","ident":"KGGW","type":"medium_airport","name":"Wokal Field/Glasgow-Valley County Airport","latitude_deg":"48.212502","longitude_deg":"-106.614998","elevation_ft":"2296","continent":"NA","iso_country":"US","iso_region":"US-MT","municipality":"Glasgow","scheduled_service":"yes","gps_code":"KGGW","iata_code":"GGW","local_code":"GGW"}
{"id":"19949","ident":"KGHG","type":"small_airport","name":"Marshfield Municipal George Harlow Field","latitude_deg":"42.09830093","longitude_deg":"-70.67220306","elevation_ft":"11","continent":"NA","iso_country":"US","iso_region":"US-MA","municipality":"Marshfield","scheduled_service":"no","gps_code":"KGHG","iata_code":"GHG","local_code":""}
{"id":"19950","ident":"KGHM","type":"small_airport","name":"Centerville Municipal Airport","latitude_deg":"35.83739853","longitude_deg":"-87.44539642","elevation_ft":"768","continent":"NA","iso_country":"US","iso_region":"US-TN","municipality":"Centerville","scheduled_service":"no","gps_code":"KGHM","iata_code":"GHM","local_code":"GHM"}
{"id":"19951","ident":"KGHW","type":"small_airport","name":"Glenwood Municipal Airport","latitude_deg":"45.64390182","longitude_deg":"-95.32039642","elevation_ft":"1393","continent":"NA","iso_country":"US","iso_region":"US-MN","municipality":"Glenwood","scheduled_service":"no","gps_code":"KGHW","iata_code":"GHW","local_code":""}
{"id":"19952","ident":"KGIF","type":"small_airport","name":"Winter Haven Regional Airport - Gilbert Field","latitude_deg":"28.062901","longitude_deg":"-81.753304","elevation_ft":"145","continent":"NA","iso_country":"US","iso_region":"US-FL","municipality":"Winter Haven","scheduled_service":"no","gps_code":"KGIF","iata_code":"GIF","local_code":"GIF"}
{"id":"3557","ident":"KGJT","type":"medium_airport","name":"Grand Junction Regional Airport","latitude_deg":"39.126663","longitude_deg":"-108.529387","elevation_ft":"4858","continent":"NA","iso_country":"US","iso_region":"US-CO","municipality":"Grand Junction","scheduled_service":"yes","gps_code":"KGJT","iata_code":"GJT","local_code":"GJT"}
{"id":"19953","ident":"KGKJ","type":"small_airport","name":"Port Meadville Airport","latitude_deg":"41.626499","longitude_deg":"-80.214699","elevation_ft":"1399","continent":"NA","iso_country":"US","iso_region":"US-PA","municipality":"Meadville","scheduled_service":"no","gps_code":"KGKJ","iata_code":"MEJ","local_code":"GKJ"}
{"id":"19954","ident":"KGKT","type":"small_airport","name":"Gatlinburg-Pigeon Forge Airport","latitude_deg":"35.85779953","longitude_deg":"-83.52870178","elevation_ft":"1014","continent":"NA","iso_country":"US","iso_region":"US-TN","municipality":"Sevierville","scheduled_service":"no","gps_code":"KGKT","iata_code":"GKT","local_code":"GKT"}
{"id":"19955","ident":"KGKY","type":"small_airport","name":"Arlington Municipal Airport","latitude_deg":"32.66389847","longitude_deg":"-97.09429932","elevation_ft":"628","continent":"NA","iso_country":"US","iso_region":"US-TX","municipality":"Arlington","scheduled_service":"no","gps_code":"KGKY","iata_code":"GKY","local_code":""}
{"id":"19956","ident":"KGLD","type":"medium_airport","name":"Goodland Municipal Airport","latitude_deg":"39.370701","longitude_deg":"-101.699753","elevation_ft":"3656","continent":"NA","iso_country":"US","iso_region":"US-KS","municipality":"Goodland","scheduled_service":"no","gps_code":"KGLD","iata_code":"GLD","local_code":"GLD"}
{"id":"19957","ident":"KGLE","type":"small_airport","name":"Gainesville Municipal Airport","latitude_deg":"33.65140152","longitude_deg":"-97.1969986","elevation_ft":"845","continent":"NA","iso_country":"US","iso_region":"US-TX","municipality":"Gainesville","scheduled_service":"no","gps_code":"KGLE","iata_code":"GLE","local_code":"GLE"}
{"id":"19958","ident":"KGLH","type":"medium_airport","name":"Mid Delta Regional Airport","latitude_deg":"33.48289871","longitude_deg":"-90.98560333","elevation_ft":"131","continent":"NA","iso_country":"US","iso_region":"US-MS","municipality":"Greenville","scheduled_service":"yes","gps_code":"KGLH","iata_code":"GLH","local_code":"GLH"}
{"id":"19959","ident":"KGLR","type":"small_airport","name":"Gaylord Regional Airport","latitude_deg":"45.01350021","longitude_deg":"-84.70359802","elevation_ft":"1328","continent":"NA","iso_country":"US","iso_region":"US-MI","municipality":"Gaylord","scheduled_service":"no","gps_code":"KGLR","iata_code":"GLR","local_code":"GLR"}
{"id":"3558","ident":"KGLS","type":"medium_airport","name":"Scholes International At Galveston Airport","latitude_deg":"29.26530075","longitude_deg":"-94.86039734","elevation_ft":"6","continent":"NA","iso_country":"US","iso_region":"US-TX","municipality":"Galveston","scheduled_service":"no","gps_code":"KGLS","iata_code":"GLS","local_code":"GLS"}
{"id":"19960","ident":"KGLW","type":"small_airport","name":"Glasgow Municipal Airport","latitude_deg":"37.03179932","longitude_deg":"-85.9536972","elevation_ft":"716","continent":"NA","iso_country":"US","iso_region":"US-KY","municipality":"Glasgow","scheduled_service":"no","gps_code":"KGLW","iata_code":"GLW","local_code":"GLW"}
{"id":"19961","ident":"KGLY","type":"small_airport","name":"Clinton Memorial Airport","latitude_deg":"38.35660172","longitude_deg":"-93.68419647","elevation_ft":"822","continent":"NA","iso_country":"US","iso_region":"US-MO","municipality":"Clinton","scheduled_service":"no","gps_code":"KGLY","iata_code":"GLY","local_code":""}
{"id":"19962","ident":"KGMJ","type":"small_airport","name":"Grove Municipal Airport","latitude_deg":"36.60680008","longitude_deg":"-94.73860168","elevation_ft":"831","continent":"NA","iso_country":"US","iso_region":"US-OK","municipality":"Grove","scheduled_service":"no","gps_code":"KGMJ","iata_code":"GMJ","local_code":""}
{"id":"19963","ident":"KGMU","type":"medium_airport","name":"Greenville Downtown Airport","latitude_deg":"34.847903","longitude_deg":"-82.350217","elevation_ft":"1048","continent":"NA","iso_country":"US","iso_region":"US-SC","municipality":"Greenville","scheduled_service":"no","gps_code":"KGMU","iata_code":"GMU","local_code":"GMU"}
{"id":"19964","ident":"KGNB","type":"small_airport","name":"Granby Grand County Airport","latitude_deg":"40.08969879","longitude_deg":"-105.9169998","elevation_ft":"8203","continent":"NA","iso_country":"US","iso_region":"US-CO","municipality":"Granby","scheduled_service":"no","gps_code":"KGNB","iata_code":"GNB","local_code":""}
{"id":"19965","ident":"KGNC","type":"small_airport","name":"Gaines County Airport","latitude_deg":"32.676807","longitude_deg":"-102.649927","elevation_ft":"3315","continent":"NA","iso_country":"US","iso_region":"US-TX","municipality":"Seminole","scheduled_service":"no","gps_code":"KGNC","iata_code":"GNC","local_code":""}
{"id":"19966","ident":"KGNF","type":"small_airport","name":"Grenada Municipal Airport","latitude_deg":"33.83250046","longitude_deg":"-89.79820251","elevation_ft":"208","continent":"NA","iso_country":"US","iso_region":"US-MS","municipality":"Grenada","scheduled_service":"no","gps_code":"KGNF","iata_code":"GNF","local_code":""}
{"id":"19967","ident":"KGNG","type":"small_airport","name":"Gooding Municipal Airport","latitude_deg":"42.91719818","longitude_deg":"-114.7649994","elevation_ft":"3732","continent":"NA","iso_country":"US","iso_region":"US-ID","municipality":"Gooding","scheduled_service":"no","gps_code":"KGNG","iata_code":"GNG","local_code":"GNG"}
{"id":"19968","ident":"KGNT","type":"small_airport","name":"Grants-Milan Municipal Airport","latitude_deg":"35.16730118","longitude_deg":"-107.9020004","elevation_ft":"6537","continent":"NA","iso_country":"US","iso_region":"US-NM","municipality":"Grants","scheduled_service":"no","gps_code":"KGNT","iata_code":"GNT","local_code":"GNT"}
{"id":"3559","ident":"KGNV","type":"medium_airport","name":"Gainesville Regional Airport","latitude_deg":"29.69009972","longitude_deg":"-82.27179718","elevation_ft":"152","continent":"NA","iso_country":"US","iso_region":"US-FL","municipality":"Gainesville","scheduled_service":"yes","gps_code":"KGNV","iata_code":"GNV","local_code":"GNV"}
{"id":"19969","ident":"KGOK","type":"small_airport","name":"Guthrie-Edmond Regional Airport","latitude_deg":"35.84980011","longitude_deg":"-97.41560364","elevation_ft":"1069","continent":"NA","iso_country":"US","iso_region":"US-OK","municipality":"Guthrie","scheduled_service":"no","gps_code":"KGOK","iata_code":"GOK","local_code":"GOK"}
{"id":"3560","ident":"KGON","type":"medium_airport","name":"Groton New London Airport","latitude_deg":"41.330101","longitude_deg":"-72.045097","elevation_ft":"9","continent":"NA","iso_country":"US","iso_region":"US-CT","municipality":"Groton","scheduled_service":"no","gps_code":"KGON","iata_code":"GON","local_code":"GON"}
{"id":"19970","ident":"KGOO","type":"small_airport","name":"Nevada County Airport","latitude_deg":"39.223998","longitude_deg":"-121.002997","elevation_ft":"3152","continent":"NA","iso_country":"US","iso_region":"US-CA","municipality":"Grass Valley","scheduled_service":"no","gps_code":"KGOO","iata_code":"GOO","local_code":""}
{"id":"17598","ident":"KGOP","type":"small_airport","name":"Gatesville Municipal Airport","latitude_deg":"31.421301","longitude_deg":"-97.796996","elevation_ft":"905","continent":"NA","iso_country":"US","iso_region":"US-TX","municipality":"Gatesville","scheduled_service":"no","gps_code":"KGOP","iata_code":"GOP","local_code":""}
{"id":"19971","ident":"KGOV","type":"small_airport","name":"Grayling Army Air Field","latitude_deg":"44.680302","longitude_deg":"-84.728897","elevation_ft":"1158","continent":"NA","iso_country":"US","iso_region":"US-MI","municipality":"Grayling","scheduled_service":"no","gps_code":"KGOV","iata_code":"GOV","local_code":""}
{"id":"19972","ident":"KGPH","type":"small_airport","name":"Midwest National Air Center Airport","latitude_deg":"39.3325","longitude_deg":"-94.309601","elevation_ft":"777","continent":"NA","iso_country":"US","iso_region":"US-MO","municipality":"Excelsior Springs","scheduled_service":"no","gps_code":"KGPH","iata_code":"GPH","local_code":""}
{"id":"3527","ident":"KGPI","type":"medium_airport","name":"Glacier Park International Airport","latitude_deg":"48.3105011","longitude_deg":"-114.2559967","elevation_ft":"2977","continent":"NA","iso_country":"US","iso_region":"US-MT","municipality":"Kalispell","scheduled_service":"yes","gps_code":"KGPI","iata_code":"FCA","local_code":"GPI"}
{"id":"19973","ident":"KGPM","type":"small_airport","name":"Grand Prairie Municipal Airport","latitude_deg":"32.69879913","longitude_deg":"-97.04689789","elevation_ft":"588","continent":"NA","iso_country":"US","iso_region":"US-TX","municipality":"Grand Prairie","scheduled_service":"no","gps_code":"KGPM","iata_code":"GPM","local_code":""}
{"id":"3561","ident":"KGPT","type":"medium_airport","name":"Gulfport Biloxi International Airport","latitude_deg":"30.407301","longitude_deg":"-89.070099","elevation_ft":"28","continent":"NA","iso_country":"US","iso_region":"US-MS","municipality":"Gulfport","scheduled_service":"yes","gps_code":"KGPT","iata_code":"GPT","local_code":"GPT"}
{"id":"19974","ident":"KGPZ","type":"small_airport","name":"Grand Rapids Itasca Co-Gordon Newstrom field","latitude_deg":"47.21110153","longitude_deg":"-93.50980377","elevation_ft":"1355","continent":"NA","iso_country":"US","iso_region":"US-MN","municipality":"Grand Rapids","scheduled_service":"no","gps_code":"KGPZ","iata_code":"GPZ","local_code":"GPZ"}
{"id":"19975","ident":"KGQQ","type":"small_airport","name":"Galion Municipal Airport","latitude_deg":"40.7533989","longitude_deg":"-82.72380066","elevation_ft":"1224","continent":"NA","iso_country":"US","iso_region":"US-OH","municipality":"Galion","scheduled_service":"no","gps_code":"KGQQ","iata_code":"GQQ","local_code":"GQQ"}
{"id":"3562","ident":"KGRB","type":"medium_airport","name":"Austin Straubel International Airport","latitude_deg":"44.483459","longitude_deg":"-88.130805","elevation_ft":"695","continent":"NA","iso_country":"US","iso_region":"US-WI","municipality":"Green Bay","scheduled_service":"yes","gps_code":"KGRB","iata_code":"GRB","local_code":"GRB"}
{"id":"19976","ident":"KGRD","type":"small_airport","name":"Greenwood County Airport","latitude_deg":"34.24869919","longitude_deg":"-82.15910339","elevation_ft":"631","continent":"NA","iso_country":"US","iso_region":"US-SC","municipality":"Greenwood","scheduled_service":"no","gps_code":"KGRD","iata_code":"GRD","local_code":"GRD"}
{"id":"19977","ident":"KGRE","type":"small_airport","name":"Greenville Airport","latitude_deg":"38.836844","longitude_deg":"-89.376525","elevation_ft":"541","continent":"NA","iso_country":"US","iso_region":"US-IL","municipality":"Greenville","scheduled_service":"no","gps_code":"KGRE","iata_code":"GRE","local_code":"GRE"}
{"id":"3563","ident":"KGRF","type":"medium_airport","name":"Gray Army Air Field","latitude_deg":"47.07920074","longitude_deg":"-122.5810013","elevation_ft":"300","continent":"NA","iso_country":"US","iso_region":"US-WA","municipality":"Fort Lewis/Tacoma","scheduled_service":"no","gps_code":"KGRF","iata_code":"GRF","local_code":"GRF"}
{"id":"3564","ident":"KGRI","type":"medium_airport","name":"Central Nebraska Regional Airport","latitude_deg":"40.96749878","longitude_deg":"-98.30960083","elevation_ft":"1847","continent":"NA","iso_country":"US","iso_region":"US-NE","municipality":"Grand Island","scheduled_service":"yes","gps_code":"KGRI","iata_code":"GRI","local_code":"GRI"}
{"id":"3565","ident":"KGRK","type":"medium_airport","name":"Killeen-Fort Hood Regional Airport / Robert Gray Army Air Field","latitude_deg":"31.0672","longitude_deg":"-97.828903","elevation_ft":"1015","continent":"NA","iso_country":"US","iso_region":"US-TX","municipality":"Killeen","scheduled_service":"yes","gps_code":"KGRK","iata_code":"GRK","local_code":"GRK"}
{"id":"311388","ident":"KGRM","type":"closed","name":"Devil's Track Airport","latitude_deg":"47.827","longitude_deg":"-90.38","elevation_ft":"1662","continent":"NA","iso_country":"US","iso_region":"US-MN","municipality":"Grand Marias","scheduled_service":"no","gps_code":"","iata_code":"","local_code":""}
{"id":"19978","ident":"KGRN","type":"small_airport","name":"Gordon Municipal Airport","latitude_deg":"42.80599976","longitude_deg":"-102.1750031","elevation_ft":"3562","continent":"NA","iso_country":"US","iso_region":"US-NE","municipality":"Gordon","scheduled_service":"no","gps_code":"KGRN","iata_code":"GRN","local_code":"GRN"}
{"id":"3566","ident":"KGRR","type":"medium_airport","name":"Gerald R. Ford International Airport","latitude_deg":"42.88079834","longitude_deg":"-85.52279663","elevation_ft":"794","continent":"NA","iso_country":"US","iso_region":"US-MI","municipality":"Grand Rapids","scheduled_service":"yes","gps_code":"KGRR","iata_code":"GRR","local_code":"GRR"}
{"id":"3567","ident":"KGSB","type":"medium_airport","name":"Seymour Johnson Air Force Base","latitude_deg":"35.339401","longitude_deg":"-77.960602","elevation_ft":"109","continent":"NA","iso_country":"US","iso_region":"US-NC","municipality":"Goldsboro","scheduled_service":"no","gps_code":"KGSB","iata_code":"GSB","local_code":"GSB"}
{"id":"19979","ident":"KGSH","type":"small_airport","name":"Goshen Municipal Airport","latitude_deg":"41.52640152","longitude_deg":"-85.79290009","elevation_ft":"827","continent":"NA","iso_country":"US","iso_region":"US-IN","municipality":"Goshen","scheduled_service":"no","gps_code":"KGSH","iata_code":"GSH","local_code":"GSH"}
{"id":"3568","ident":"KGSO","type":"medium_airport","name":"Piedmont Triad International Airport","latitude_deg":"36.097801","longitude_deg":"-79.937302","elevation_ft":"925","continent":"NA","iso_country":"US","iso_region":"US-NC","municipality":"Greensboro","scheduled_service":"yes","gps_code":"KGSO","iata_code":"GSO","local_code":"GSO"}
{"id":"3569","ident":"KGSP","type":"medium_airport","name":"Greenville Spartanburg International Airport","latitude_deg":"34.895699","longitude_deg":"-82.218903","elevation_ft":"964","continent":"NA","iso_country":"US","iso_region":"US-SC","municipality":"Greer","scheduled_service":"yes","gps_code":"KGSP","iata_code":"GSP","local_code":"GSP"}
{"id":"307427","ident":"KGSW","type":"closed","name":"Greater Southwest International Airport-Amon Carter Field","latitude_deg":"32.83081045","longitude_deg":"-97.04918861","elevation_ft":"568","continent":"NA","iso_country":"US","iso_region":"US-TX","municipality":"Fort Worth","scheduled_service":"no","gps_code":"","iata_code":"","local_code":""}
{"id":"3570","ident":"KGTB","type":"medium_airport","name":"Wheeler Sack Army Air Field","latitude_deg":"44.05559921","longitude_deg":"-75.71949768","elevation_ft":"688","continent":"NA","iso_country":"US","iso_region":"US-NY","municipality":"Fort Drum","scheduled_service":"no","gps_code":"KGTB","iata_code":"GTB","local_code":""}
{"id":"19980","ident":"KGTE","type":"small_airport","name":"Gothenburg Municipal Airport","latitude_deg":"40.9263","longitude_deg":"-100.148003","elevation_ft":"2559","continent":"NA","iso_country":"US","iso_region":"US-NE","municipality":"Gothenburg","scheduled_service":"no","gps_code":"KGTE","iata_code":"GTE","local_code":""}
{"id":"3571","ident":"KGTF","type":"medium_airport","name":"Great Falls International Airport","latitude_deg":"47.48199844","longitude_deg":"-111.3710022","elevation_ft":"3680","continent":"NA","iso_country":"US","iso_region":"US-MT","municipality":"Great Falls","scheduled_service":"yes","gps_code":"KGTF","iata_code":"GTF","local_code":"GTF"}
{"id":"19981","ident":"KGTG","type":"small_airport","name":"Grantsburg Municipal Airport","latitude_deg":"45.79809952","longitude_deg":"-92.66439819","elevation_ft":"927","continent":"NA","iso_country":"US","iso_region":"US-WI","municipality":"Grantsburg","scheduled_service":"no","gps_code":"KGTG","iata_code":"GTG","local_code":"GTG"}
{"id":"19982","ident":"KGTR","type":"medium_airport","name":"Golden Triangle Regional Airport","latitude_deg":"33.45029831","longitude_deg":"-88.59140015","elevation_ft":"264","continent":"NA","iso_country":"US","iso_region":"US-MS","municipality":"Columbus/W Point/Starkville","scheduled_service":"yes","gps_code":"KGTR","iata_code":"GTR","local_code":"GTR"}
{"id":"19983","ident":"KGTU","type":"small_airport","name":"Georgetown Executive Airport at Johnny Gantt Field","latitude_deg":"30.677543","longitude_deg":"-97.678524","elevation_ft":"790","continent":"NA","iso_country":"US","iso_region":"US-TX","municipality":"Georgetown","scheduled_service":"no","gps_code":"KGTU","iata_code":"GTU","local_code":""}
{"id":"19984","ident":"KGUC","type":"small_airport","name":"Gunnison Crested Butte Regional Airport","latitude_deg":"38.536346","longitude_deg":"-106.928306","elevation_ft":"7680","continent":"NA","iso_country":"US","iso_region":"US-CO","municipality":"Gunnison","scheduled_service":"yes","gps_code":"KGUC","iata_code":"GUC","local_code":"GUC"}
{"id":"3572","ident":"KGUP","type":"medium_airport","name":"Gallup Municipal Airport","latitude_deg":"35.51110077","longitude_deg":"-108.7890015","elevation_ft":"6472","continent":"NA","iso_country":"US","iso_region":"US-NM","municipality":"Gallup","scheduled_service":"no","gps_code":"KGUP","iata_code":"GUP","local_code":"GUP"}
{"id":"3573","ident":"KGUS","type":"medium_airport","name":"Grissom Air Reserve Base","latitude_deg":"40.648102","longitude_deg":"-86.1521","elevation_ft":"812","continent":"NA","iso_country":"US","iso_region":"US-IN","municipality":"Peru","scheduled_service":"no","gps_code":"KGUS","iata_code":"GUS","local_code":"GUS"}
{"id":"19985","ident":"KGUY","type":"medium_airport","name":"Guymon Municipal Airport","latitude_deg":"36.68510056","longitude_deg":"-101.5080032","elevation_ft":"3123","continent":"NA","iso_country":"US","iso_region":"US-OK","municipality":"Guymon","scheduled_service":"no","gps_code":"KGUY","iata_code":"GUY","local_code":"GUY"}
{"id":"19986","ident":"KGVL","type":"small_airport","name":"Lee Gilmer Memorial Airport","latitude_deg":"34.27259827","longitude_deg":"-83.8302002","elevation_ft":"1276","continent":"NA","iso_country":"US","iso_region":"US-GA","municipality":"Gainesville","scheduled_service":"no","gps_code":"KGVL","iata_code":"GVL","local_code":"GVL"}
{"id":"19987","ident":"KGVQ","type":"small_airport","name":"Genesee County Airport","latitude_deg":"43.03170013","longitude_deg":"-78.16760254","elevation_ft":"914","continent":"NA","iso_country":"US","iso_region":"US-NY","municipality":"Batavia","scheduled_service":"no","gps_code":"KGVQ","iata_code":"GVQ","local_code":""}
{"id":"19988","ident":"KGVT","type":"small_airport","name":"Majors Airport","latitude_deg":"33.06779861","longitude_deg":"-96.06529999","elevation_ft":"535","continent":"NA","iso_country":"US","iso_region":"US-TX","municipality":"Greenville","scheduled_service":"no","gps_code":"KGVT","iata_code":"GVT","local_code":"GVT"}
{"id":"30007","ident":"KGVW","type":"closed","name":"Richards-Gebaur Air Force Base","latitude_deg":"38.84420013","longitude_deg":"-94.55999756","elevation_ft":"1093","continent":"NA","iso_country":"US","iso_region":"US-MO","municipality":"Belton","scheduled_service":"no","gps_code":"","iata_code":"","local_code":""}
{"id":"302158","ident":"KGW","type":"small_airport","name":"Kagi Airport","latitude_deg":"-9.135916667","longitude_deg":"147.6694444","elevation_ft":"4200","continent":"OC","iso_country":"PG","iso_region":"PG-CPM","municipality":"Kagi","scheduled_service":"no","gps_code":"AYKQ","iata_code":"KGW","local_code":"KAGI"}
{"id":"19989","ident":"KGWB","type":"small_airport","name":"De Kalb County Airport","latitude_deg":"41.307201","longitude_deg":"-85.0644","elevation_ft":"880","continent":"NA","iso_country":"US","iso_region":"US-IN","municipality":"Auburn","scheduled_service":"no","gps_code":"KGWB","iata_code":"GWB","local_code":""}
{"id":"300160","ident":"KGWN","type":"heliport","name":"Winn Army Community Hospital Helipad","latitude_deg":"31.874278","longitude_deg":"-81.596618","elevation_ft":"82","continent":"NA","iso_country":"US","iso_region":"US-GA","municipality":"Fort Stewart","scheduled_service":"no","gps_code":"KGWN","iata_code":"","local_code":""}
{"id":"3574","ident":"KGWO","type":"medium_airport","name":"Greenwood–Leflore Airport","latitude_deg":"33.49430084","longitude_deg":"-90.08470154","elevation_ft":"162","continent":"NA","iso_country":"US","iso_region":"US-MS","municipality":"Greenwood","scheduled_service":"no","gps_code":"KGWO","iata_code":"GWO","local_code":"GWO"}
{"id":"19990","ident":"KGWR","type":"small_airport","name":"Gwinner Roger Melroe Field","latitude_deg":"46.21870041","longitude_deg":"-97.64320374","elevation_ft":"1266","continent":"NA","iso_country":"US","iso_region":"US-ND","municipality":"Gwinner","scheduled_service":"no","gps_code":"KGWR","iata_code":"GWR","local_code":""}
{"id":"19991","ident":"KGWS","type":"small_airport","name":"Glenwood Springs Municipal Airport","latitude_deg":"39.50830078","longitude_deg":"-107.310997","elevation_ft":"5916","continent":"NA","iso_country":"US","iso_region":"US-CO","municipality":"Glenwood Springs","scheduled_service":"no","gps_code":"KGWS","iata_code":"GWS","local_code":"GWS"}
{"id":"19992","ident":"KGWW","type":"small_airport","name":"Goldsboro-Wayne Municipal Airport","latitude_deg":"35.46060181","longitude_deg":"-77.96489716","elevation_ft":"134","continent":"NA","iso_country":"US","iso_region":"US-NC","municipality":"Goldsboro","scheduled_service":"no","gps_code":"KGWW","iata_code":"GWW","local_code":""}
{"id":"19993","ident":"KGX","type":"small_airport","name":"Grayling Airport","latitude_deg":"62.895187","longitude_deg":"-160.066289","elevation_ft":"99","continent":"NA","iso_country":"US","iso_region":"US-AK","municipality":"Grayling","scheduled_service":"yes","gps_code":"PAGX","iata_code":"KGX","local_code":"KGX"}
{"id":"19994","ident":"KGXY","type":"small_airport","name":"Greeley–Weld County Airport","latitude_deg":"40.43740082","longitude_deg":"-104.6330032","elevation_ft":"4697","continent":"NA","iso_country":"US","iso_region":"US-CO","municipality":"Greeley","scheduled_service":"no","gps_code":"KGXY","iata_code":"GXY","local_code":"GXY"}
{"id":"19995","ident":"KGYB","type":"small_airport","name":"Giddings-Lee County Airport","latitude_deg":"30.1693","longitude_deg":"-96.980003","elevation_ft":"485","continent":"NA","iso_country":"US","iso_region":"US-TX","municipality":"Giddings","scheduled_service":"no","gps_code":"KGYB","iata_code":"GYB","local_code":""}
{"id":"19996","ident":"KGYH","type":"small_airport","name":"Donaldson Field Airport","latitude_deg":"34.758301","longitude_deg":"-82.376404","elevation_ft":"955","continent":"NA","iso_country":"US","iso_region":"US-SC","municipality":"Greenville","scheduled_service":"no","gps_code":"KGYH","iata_code":"GDC","local_code":"GYH"}
{"id":"19997","ident":"KGYI","type":"small_airport","name":"North Texas Regional Airport/Perrin Field","latitude_deg":"33.7141","longitude_deg":"-96.673698","elevation_ft":"749","continent":"NA","iso_country":"US","iso_region":"US-TX","municipality":"Sherman/Denison","scheduled_service":"no","gps_code":"KGYI","iata_code":"PNX","local_code":"GYI"}
{"id":"19998","ident":"KGYL","type":"small_airport","name":"Glencoe Municipal Airport","latitude_deg":"44.75600052","longitude_deg":"-94.08119965","elevation_ft":"992","continent":"NA","iso_country":"US","iso_region":"US-MN","municipality":"Glencoe","scheduled_service":"no","gps_code":"KGYL","iata_code":"GYL","local_code":""}
{"id":"19999","ident":"KGYR","type":"small_airport","name":"Phoenix Goodyear Airport","latitude_deg":"33.42250061","longitude_deg":"-112.3759995","elevation_ft":"968","continent":"NA","iso_country":"US","iso_region":"US-AZ","municipality":"Goodyear","scheduled_service":"no","gps_code":"KGYR","iata_code":"GYR","local_code":"GYR"}
{"id":"3575","ident":"KGYY","type":"medium_airport","name":"Gary Chicago International Airport","latitude_deg":"41.61629868","longitude_deg":"-87.41280365","elevation_ft":"591","continent":"NA","iso_country":"US","iso_region":"US-IN","municipality":"Gary","scheduled_service":"no","gps_code":"KGYY","iata_code":"GYY","local_code":"GYY"}
{"id":"20000","ident":"KGZ","type":"small_airport","name":"Glacier Creek Airport","latitude_deg":"61.45510101","longitude_deg":"-142.3809967","elevation_ft":"2380","continent":"NA","iso_country":"US","iso_region":"US-AK","municipality":"Glacier Creek","scheduled_service":"no","gps_code":"KGZ","iata_code":"KGZ","local_code":"KGZ"}
{"id":"20001","ident":"KGZH","type":"small_airport","name":"Evergreen Regional Airport/Middleton Field","latitude_deg":"31.4158","longitude_deg":"-87.043999","elevation_ft":"259","continent":"NA","iso_country":"US","iso_region":"US-AL","municipality":"Evergreen","scheduled_service":"no","gps_code":"KGZH","iata_code":"GZH","local_code":""}
{"id":"319542","ident":"KGZN","type":"small_airport","name":"Gregory M. Simmons Memorial Airport","latitude_deg":"32.367348","longitude_deg":"-99.023642","elevation_ft":"1711","continent":"NA","iso_country":"US","iso_region":"US-TX","municipality":"Cisco","scheduled_service":"no","gps_code":"KGZN","iata_code":"GZN","local_code":""}
{"id":"20002","ident":"KGZS","type":"small_airport","name":"Abernathy Field","latitude_deg":"35.15370178","longitude_deg":"-87.05680084","elevation_ft":"685","continent":"NA","iso_country":"US","iso_region":"US-TN","municipality":"Pulaski","scheduled_service":"no","gps_code":"KGZS","iata_code":"GZS","local_code":""}
{"id":"339963","ident":"KH-0001","type":"small_airport","name":"Dara Sakor International Airport","latitude_deg":"10.914244","longitude_deg":"103.226652","elevation_ft":"AS","continent":"KH","iso_country":"KH-9","iso_region":"Ta Noun","municipality":"no","scheduled_service":"DSY","gps_code":"","iata_code":"","local_code":""}
{"id":"342098","ident":"KH-0002","type":"closed","name":"New Phnom Penh International Airport (under construction)","latitude_deg":"11.3623","longitude_deg":"104.9154","elevation_ft":"20","continent":"AS","iso_country":"KH","iso_region":"KH-8","municipality":"Phnom Peng (Boeng Khyang)","scheduled_service":"no","gps_code":"","iata_code":"","local_code":""}
{"id":"342099","ident":"KH-0003","type":"closed","name":"New Siem Reap Angkor International Airport (under construction)","latitude_deg":"13.3726","longitude_deg":"104.2226","elevation_ft":"AS","continent":"KH","iso_country":"KH-17","iso_region":"Siem Reap (Paoy Smach)","municipality":"no","scheduled_service":"","gps_code":"","iata_code":"","local_code":""}
{"id":"20003","ident":"KH04","type":"small_airport","name":"Vinita Municipal Airport","latitude_deg":"36.63299942","longitude_deg":"-95.15139771","elevation_ft":"696","continent":"NA","iso_country":"US","iso_region":"US-OK","municipality":"Vinita","scheduled_service":"no","gps_code":"KH04","iata_code":"H04","local_code":""}
{"id":"20004","ident":"KH05","type":"small_airport","name":"Wilburton Municipal Airport","latitude_deg":"34.91999817","longitude_deg":"-95.39399719","elevation_ft":"670","continent":"NA","iso_country":"US","iso_region":"US-OK","municipality":"Wilburton","scheduled_service":"no","gps_code":"KH05","iata_code":"H05","local_code":""}
{"id":"20005","ident":"KH17","type":"small_airport","name":"Buffalo Municipal Airport","latitude_deg":"37.65420151","longitude_deg":"-93.08769989","elevation_ft":"1154","continent":"NA","iso_country":"US","iso_region":"US-MO","municipality":"Buffalo","scheduled_service":"no","gps_code":"KH17","iata_code":"H17","local_code":""}
{"id":"20006","ident":"KH19","type":"small_airport","name":"Bowling Green Municipal Airport","latitude_deg":"39.36989975","longitude_deg":"-91.21929932","elevation_ft":"886","continent":"NA","iso_country":"US","iso_region":"US-MO","municipality":"Bowling Green","scheduled_service":"no","gps_code":"KH19","iata_code":"H19","local_code":""}
{"id":"20007","ident":"KH21","type":"small_airport","name":"Camdenton Memorial Airport","latitude_deg":"37.974024","longitude_deg":"-92.691254","elevation_ft":"1062","continent":"NA","iso_country":"US","iso_region":"US-MO","municipality":"Camdenton","scheduled_service":"no","gps_code":"KOZS","iata_code":"OZS","local_code":""}
{"id":"20009","ident":"KH34","type":"small_airport","name":"Huntsville Municipal Airport","latitude_deg":"36.078201","longitude_deg":"-93.754799","elevation_ft":"1749","continent":"NA","iso_country":"US","iso_region":"US-AR","municipality":"Huntsville","scheduled_service":"noH34","gps_code":"","iata_code":"","local_code":""}
{"id":"20010","ident":"KH35","type":"small_airport","name":"Clarksville Municipal Airport","latitude_deg":"35.47069931","longitude_deg":"-93.42720032","elevation_ft":"481","continent":"NA","iso_country":"US","iso_region":"US-AR","municipality":"Clarksville","scheduled_service":"no","gps_code":"KH35","iata_code":"H35","local_code":""}
{"id":"20011","ident":"KH37","type":"small_airport","name":"Herlong Airport","latitude_deg":"40.13880157","longitude_deg":"-120.1790009","elevation_ft":"4055","continent":"NA","iso_country":"US","iso_region":"US-CA","municipality":"Herlong","scheduled_service":"no","gps_code":"H37","iata_code":"H37","local_code":""}
{"id":"20012","ident":"KH58","type":"small_airport","name":"Owen Field","latitude_deg":"37.18470001","longitude_deg":"-92.73760223","elevation_ft":"1600","continent":"NA","iso_country":"US","iso_region":"US-MO","municipality":"Seymour","scheduled_service":"no","gps_code":"KH58","iata_code":"H58","local_code":""}
{"id":"20013","ident":"KH68","type":"small_airport","name":"Hefner Easley Airport","latitude_deg":"35.96260071","longitude_deg":"-95.34190369","elevation_ft":"609","continent":"NA","iso_country":"US","iso_region":"US-OK","municipality":"Wagoner","scheduled_service":"no","gps_code":"KH68","iata_code":"H68","local_code":""}
{"id":"20014","ident":"KH70","type":"small_airport","name":"Stratford Field","latitude_deg":"36.34560013","longitude_deg":"-102.0490036","elevation_ft":"3668","continent":"NA","iso_country":"US","iso_region":"US-TX","municipality":"Stratford","scheduled_service":"no","gps_code":"KH70","iata_code":"H70","local_code":""}
{"id":"20015","ident":"KH71","type":"small_airport","name":"Mid America Industrial Airport","latitude_deg":"36.22539902","longitude_deg":"-95.33010101","elevation_ft":"622","continent":"NA","iso_country":"US","iso_region":"US-OK","municipality":"Pryor","scheduled_service":"no","gps_code":"KH71","iata_code":"H71","local_code":""}
{"id":"20016","ident":"KH76","type":"small_airport","name":"Pawhuska Municipal Airport","latitude_deg":"36.67169952","longitude_deg":"-96.4056015","elevation_ft":"1000","continent":"NA","iso_country":"US","iso_region":"US-OK","municipality":"Pawhuska","scheduled_service":"no","gps_code":"KH76","iata_code":"H76","local_code":""}
{"id":"20017","ident":"KH79","type":"small_airport","name":"Eldon Model Airpark","latitude_deg":"38.36059952","longitude_deg":"-92.57160187","elevation_ft":"909","continent":"NA","iso_country":"US","iso_region":"US-MO","municipality":"Eldon","scheduled_service":"no","gps_code":"KH79","iata_code":"H79","local_code":""}
{"id":"20018","ident":"KH88","type":"small_airport","name":"A Paul Vance Fredericktown Regional Airport","latitude_deg":"37.605801","longitude_deg":"-90.2873","elevation_ft":"880","continent":"NA","iso_country":"US","iso_region":"US-MO","municipality":"Fredericktown","scheduled_service":"noH88","gps_code":"","iata_code":"","local_code":""}
{"id":"20019","ident":"KH92","type":"small_airport","name":"Hominy Municipal Airport","latitude_deg":"36.44269943","longitude_deg":"-96.3871994","elevation_ft":"825","continent":"NA","iso_country":"US","iso_region":"US-OK","municipality":"Hominy","scheduled_service":"no","gps_code":"KH92","iata_code":"H92","local_code":""}
{"id":"20020","ident":"KH96","type":"small_airport","name":"Benton Municipal Airport","latitude_deg":"38.00669861","longitude_deg":"-88.93440247","elevation_ft":"444","continent":"NA","iso_country":"US","iso_region":"US-IL","municipality":"Benton","scheduled_service":"no","gps_code":"KH96","iata_code":"H96","local_code":""}
{"id":"20021","ident":"KHAB","type":"small_airport","name":"Marion County Rankin Fite Airport","latitude_deg":"34.11759949","longitude_deg":"-87.99819946","elevation_ft":"436","continent":"NA","iso_country":"US","iso_region":"US-AL","municipality":"Hamilton","scheduled_service":"no","gps_code":"KHAB","iata_code":"HAB","local_code":"HAB"}
{"id":"20022","ident":"KHAE","type":"small_airport","name":"Hannibal Regional Airport","latitude_deg":"39.72449875","longitude_deg":"-91.4437027","elevation_ft":"769","continent":"NA","iso_country":"US","iso_region":"US-MO","municipality":"Hannibal","scheduled_service":"no","gps_code":"KHAE","iata_code":"HAE","local_code":""}
{"id":"20023","ident":"KHAF","type":"small_airport","name":"Half Moon Bay Airport","latitude_deg":"37.51340103","longitude_deg":"-122.5009995","elevation_ft":"66","continent":"NA","iso_country":"US","iso_region":"US-CA","municipality":"Half Moon Bay","scheduled_service":"no","gps_code":"KHAF","iata_code":"HAF","local_code":"HAF"}
{"id":"20024","ident":"KHAI","type":"small_airport","name":"Three Rivers Municipal Dr Haines Airport","latitude_deg":"41.95980072","longitude_deg":"-85.59339905","elevation_ft":"824","continent":"NA","iso_country":"US","iso_region":"US-MI","municipality":"Three Rivers","scheduled_service":"no","gps_code":"KHAI","iata_code":"HAI","local_code":"HAI"}
{"id":"20025","ident":"KHAO","type":"small_airport","name":"Butler Co Regional Airport - Hogan Field","latitude_deg":"39.36380005","longitude_deg":"-84.52200317","elevation_ft":"633","continent":"NA","iso_country":"US","iso_region":"US-OH","municipality":"Hamilton","scheduled_service":"no","gps_code":"KHAO","iata_code":"HAO","local_code":"HAO"}
{"id":"17617","ident":"KHAX","type":"closed","name":"Hatbox Field","latitude_deg":"35.746437","longitude_deg":"-95.413277","elevation_ft":"627","continent":"NA","iso_country":"US","iso_region":"US-OK","municipality":"Muskogee","scheduled_service":"no","gps_code":"","iata_code":"","local_code":""}
{"id":"20026","ident":"KHBC","type":"small_airport","name":"Mohall Municipal Airport","latitude_deg":"48.76839828","longitude_deg":"-101.5370026","elevation_ft":"1649","continent":"NA","iso_country":"US","iso_region":"US-ND","municipality":"Mohall","scheduled_service":"no","gps_code":"KHBC","iata_code":"HBC","local_code":""}
{"id":"20027","ident":"KHBG","type":"medium_airport","name":"Hattiesburg Bobby L Chain Municipal Airport","latitude_deg":"31.26479912","longitude_deg":"-89.25279999","elevation_ft":"151","continent":"NA","iso_country":"US","iso_region":"US-MS","municipality":"Hattiesburg","scheduled_service":"no","gps_code":"KHBG","iata_code":"HBG","local_code":"HBG"}
{"id":"20028","ident":"KHBI","type":"small_airport","name":"Asheboro Regional Airport","latitude_deg":"35.65449905","longitude_deg":"-79.8946991","elevation_ft":"671","continent":"NA","iso_country":"US","iso_region":"US-NC","municipality":"Asheboro","scheduled_service":"no","gps_code":"KHBI","iata_code":"HBI","local_code":""}
{"id":"20029","ident":"KHBR","type":"medium_airport","name":"Hobart Regional Airport","latitude_deg":"34.991317","longitude_deg":"-99.051313","elevation_ft":"1563","continent":"NA","iso_country":"US","iso_region":"US-OK","municipality":"Hobart","scheduled_service":"no","gps_code":"KHBR","iata_code":"HBR","local_code":"HBR"}
{"id":"20030","ident":"KHBV","type":"small_airport","name":"Jim Hogg County Airport","latitude_deg":"27.34959984","longitude_deg":"-98.73699951","elevation_ft":"663","continent":"NA","iso_country":"US","iso_region":"US-TX","municipality":"Hebbronville","scheduled_service":"no","gps_code":"KHBV","iata_code":"HBV","local_code":""}
{"id":"20031","ident":"KHBW","type":"closed","name":"Joshua Sanford Field","latitude_deg":"43.656601","longitude_deg":"-90.3282","elevation_ft":"938","continent":"NA","iso_country":"US","iso_region":"US-WI","municipality":"Hillsboro","scheduled_service":"no","gps_code":"","iata_code":"","local_code":""}
{"id":"20032","ident":"KHBZ","type":"small_airport","name":"Heber Springs Municipal Airport","latitude_deg":"35.5117","longitude_deg":"-92.013","elevation_ft":"632","continent":"NA","iso_country":"US","iso_region":"US-AR","municipality":"Heber Springs","scheduled_service":"no","gps_code":"KHBZ","iata_code":"HBZ","local_code":""}
{"id":"20033","ident":"KHCD","type":"small_airport","name":"Hutchinson Municipal Butler Field","latitude_deg":"44.85990143","longitude_deg":"-94.38249969","elevation_ft":"1062","continent":"NA","iso_country":"US","iso_region":"US-MN","municipality":"Hutchinson","scheduled_service":"no","gps_code":"KHCD","iata_code":"HCD","local_code":""}
{"id":"20034","ident":"KHCO","type":"small_airport","name":"Hallock Municipal Airport","latitude_deg":"48.752701","longitude_deg":"-96.943001","elevation_ft":"819","continent":"NA","iso_country":"US","iso_region":"US-MN","municipality":"Hallock","scheduled_service":"no","gps_code":"KHCO","iata_code":"HCO","local_code":""}
{"id":"20035","ident":"KHDC","type":"small_airport","name":"Hammond Northshore Regional Airport","latitude_deg":"30.52160072","longitude_deg":"-90.41840363","elevation_ft":"47","continent":"NA","iso_country":"US","iso_region":"US-LA","municipality":"Hammond","scheduled_service":"no","gps_code":"KHDC","iata_code":"HDC","local_code":""}
{"id":"20036","ident":"KHDE","type":"small_airport","name":"Brewster Field","latitude_deg":"40.452099","longitude_deg":"-99.336502","elevation_ft":"2313","continent":"NA","iso_country":"US","iso_region":"US-NE","municipality":"Holdrege","scheduled_service":"no","gps_code":"KHDE","iata_code":"HDE","local_code":"HDE"}
{"id":"20037","ident":"KHDI","type":"closed","name":"Hardwick Field","latitude_deg":"35.2201","longitude_deg":"-84.832397","elevation_ft":"874","continent":"NA","iso_country":"US","iso_region":"US-TN","municipality":"Cleveland","scheduled_service":"no","gps_code":"","iata_code":"","local_code":""}
{"id":"20038","ident":"KHDN","type":"small_airport","name":"Yampa Valley Airport","latitude_deg":"40.481201","longitude_deg":"-107.218002","elevation_ft":"6606","continent":"NA","iso_country":"US","iso_region":"US-CO","municipality":"Hayden","scheduled_service":"yes","gps_code":"KHDN","iata_code":"HDN","local_code":"HDN"}
{"id":"20039","ident":"KHDO","type":"small_airport","name":"South Texas Regional Airport at Hondo","latitude_deg":"29.35950089","longitude_deg":"-99.17669678","elevation_ft":"930","continent":"NA","iso_country":"US","iso_region":"US-TX","municipality":"Hondo","scheduled_service":"no","gps_code":"KHDO","iata_code":"HDO","local_code":""}
{"id":"20040","ident":"KHEE","type":"small_airport","name":"Thompson-Robbins Airport","latitude_deg":"34.576571","longitude_deg":"-90.67616","elevation_ft":"242","continent":"NA","iso_country":"US","iso_region":"US-AR","municipality":"West Helena","scheduled_service":"no","gps_code":"KHEE","iata_code":"HEE","local_code":"HEE"}
{"id":"20041","ident":"KHEF","type":"small_airport","name":"Manassas Regional Airport/Harry P. Davis Field","latitude_deg":"38.72140121","longitude_deg":"-77.51540375","elevation_ft":"192","continent":"NA","iso_country":"US","iso_region":"US-VA","municipality":"Manassas","scheduled_service":"no","gps_code":"KHEF","iata_code":"MNZ","local_code":"HEF"}
{"id":"20042","ident":"KHEG","type":"small_airport","name":"Herlong Airport","latitude_deg":"30.2778","longitude_deg":"-81.805901","elevation_ft":"87","continent":"NA","iso_country":"US","iso_region":"US-FL","municipality":"Jacksonville","scheduled_service":"no","gps_code":"KHEG","iata_code":"HEG","local_code":""}
{"id":"20043","ident":"KHEI","type":"small_airport","name":"Hettinger Municipal Airport","latitude_deg":"46.01490021","longitude_deg":"-102.6559982","elevation_ft":"2705","continent":"NA","iso_country":"US","iso_region":"US-ND","municipality":"Hettinger","scheduled_service":"no","gps_code":"KHEI","iata_code":"HEI","local_code":""}
{"id":"20044","ident":"KHEQ","type":"small_airport","name":"Holyoke Airport","latitude_deg":"40.56940079","longitude_deg":"-102.2730026","elevation_ft":"3730","continent":"NA","iso_country":"US","iso_region":"US-CO","municipality":"Holyoke","scheduled_service":"no","gps_code":"KHEQ","iata_code":"HEQ","local_code":""}
{"id":"20045","ident":"KHEZ","type":"small_airport","name":"Natchez–Adams County Airport / Hardy-Anders Field","latitude_deg":"31.614817","longitude_deg":"-91.297331","elevation_ft":"272","continent":"NA","iso_country":"US","iso_region":"US-MS","municipality":"Natchez","scheduled_service":"no","gps_code":"KHEZ","iata_code":"HEZ","local_code":"HEZ"}
{"id":"3576","ident":"KHFD","type":"medium_airport","name":"Hartford Brainard Airport","latitude_deg":"41.73669815","longitude_deg":"-72.6493988","elevation_ft":"18","continent":"NA","iso_country":"US","iso_region":"US-CT","municipality":"Hartford","scheduled_service":"no","gps_code":"KHFD","iata_code":"HFD","local_code":"HFD"}
{"id":"20046","ident":"KHFF","type":"small_airport","name":"Mackall Army Air Field","latitude_deg":"35.036087","longitude_deg":"-79.498615","elevation_ft":"376","continent":"NA","iso_country":"US","iso_region":"US-NC","municipality":"Hoffman","scheduled_service":"no","gps_code":"KHFF","iata_code":"HFF","local_code":"HFF"}
{"id":"20444","ident":"KHFJ","type":"small_airport","name":"Monett Regional Airport","latitude_deg":"36.9062","longitude_deg":"-94.012802","elevation_ft":"1314","continent":"NA","iso_country":"US","iso_region":"US-MO","municipality":"Pierce City","scheduled_service":"no","gps_code":"KHFJ","iata_code":"HFJ","local_code":""}
{"id":"20047","ident":"KHFY","type":"small_airport","name":"Indy South Greenwood Airport","latitude_deg":"39.628399","longitude_deg":"-86.087898","elevation_ft":"822","continent":"NA","iso_country":"US","iso_region":"US-IN","municipality":"Indianapolis","scheduled_service":"no","gps_code":"KHFY","iata_code":"HFY","local_code":""}
{"id":"3577","ident":"KHGR","type":"medium_airport","name":"Hagerstown Regional Richard A Henson Field","latitude_deg":"39.707901","longitude_deg":"-77.72949982","elevation_ft":"703","continent":"NA","iso_country":"US","iso_region":"US-MD","municipality":"Hagerstown","scheduled_service":"no","gps_code":"KHGR","iata_code":"HGR","local_code":"HGR"}
{"id":"20048","ident":"KHHF","type":"small_airport","name":"Hemphill County Airport","latitude_deg":"35.89530182","longitude_deg":"-100.4039993","elevation_ft":"2396","continent":"NA","iso_country":"US","iso_region":"US-TX","municipality":"Canadian","scheduled_service":"no","gps_code":"KHHF","iata_code":"HHF","local_code":""}
{"id":"20049","ident":"KHHG","type":"small_airport","name":"Huntington Municipal Airport","latitude_deg":"40.852901","longitude_deg":"-85.4571","elevation_ft":"806","continent":"NA","iso_country":"US","iso_region":"US-IN","municipality":"Huntington","scheduled_service":"no","gps_code":"KHHG","iata_code":"HHG","local_code":""}
{"id":"3578","ident":"KHHR","type":"medium_airport","name":"Jack Northrop Field Hawthorne Municipal Airport","latitude_deg":"33.922798","longitude_deg":"-118.334999","elevation_ft":"66","continent":"NA","iso_country":"US","iso_region":"US-CA","municipality":"Hawthorne","scheduled_service":"no","gps_code":"KHHR","iata_code":"HHR","local_code":"HHR"}
{"id":"20050","ident":"KHHW","type":"small_airport","name":"Stan Stamper Municipal Airport","latitude_deg":"34.03480148","longitude_deg":"-95.54190063","elevation_ft":"572","continent":"NA","iso_country":"US","iso_region":"US-OK","municipality":"Hugo","scheduled_service":"no","gps_code":"KHHW","iata_code":"HUJ","local_code":"HHW"}
{"id":"3579","ident":"KHIB","type":"medium_airport","name":"Range Regional Airport","latitude_deg":"47.3866","longitude_deg":"-92.838997","elevation_ft":"1354","continent":"NA","iso_country":"US","iso_region":"US-MN","municipality":"Hibbing","scheduled_service":"yes","gps_code":"KHIB","iata_code":"HIB","local_code":"HIB"}
{"id":"20051","ident":"KHIE","type":"small_airport","name":"Mount Washington Regional Airport","latitude_deg":"44.36752","longitude_deg":"-71.545765","elevation_ft":"1074","continent":"NA","iso_country":"US","iso_region":"US-NH","municipality":"Whitefield","scheduled_service":"no","gps_code":"KHIE","iata_code":"HIE","local_code":"HIE"}
{"id":"3580","ident":"KHIF","type":"medium_airport","name":"Hill Air Force Base","latitude_deg":"41.12403","longitude_deg":"-111.973086","elevation_ft":"4789","continent":"NA","iso_country":"US","iso_region":"US-UT","municipality":"Ogden","scheduled_service":"no","gps_code":"KHIF","iata_code":"HIF","local_code":"HIF"}
{"id":"20052","ident":"KHIG","type":"small_airport","name":"Higginsville Industrial Municipal Airport","latitude_deg":"39.07289886","longitude_deg":"-93.67749786","elevation_ft":"840","continent":"NA","iso_country":"US","iso_region":"US-MO","municipality":"Higginsville","scheduled_service":"no","gps_code":"KHIG","iata_code":"HIG","local_code":""}
{"id":"20053","ident":"KHII","type":"medium_airport","name":"Lake Havasu City International Airport","latitude_deg":"34.571098","longitude_deg":"-114.358002","elevation_ft":"783","continent":"NA","iso_country":"US","iso_region":"US-AZ","municipality":"Lake Havasu City","scheduled_service":"yes","gps_code":"KHII","iata_code":"HII","local_code":"HII"}
{"id":"20054","ident":"KHIO","type":"medium_airport","name":"Portland Hillsboro Airport","latitude_deg":"45.540401","longitude_deg":"-122.949997","elevation_ft":"208","continent":"NA","iso_country":"US","iso_region":"US-OR","municipality":"Portland","scheduled_service":"no","gps_code":"KHIO","iata_code":"HIO","local_code":"HIO"}
{"id":"20055","ident":"KHJH","type":"small_airport","name":"Hebron Municipal Airport","latitude_deg":"40.15219879","longitude_deg":"-97.58699799","elevation_ft":"1466","continent":"NA","iso_country":"US","iso_region":"US-NE","municipality":"Hebron","scheduled_service":"no","gps_code":"KHJH","iata_code":"HJH","local_code":""}
{"id":"20056","ident":"KHJO","type":"small_airport","name":"Hanford Municipal Airport","latitude_deg":"36.31669998","longitude_deg":"-119.6279984","elevation_ft":"240","continent":"NA","iso_country":"US","iso_region":"US-CA","municipality":"Hanford","scheduled_service":"no","gps_code":"KHJO","iata_code":"HJO","local_code":""}
{"id":"20057","ident":"KHKA","type":"small_airport","name":"Blytheville Municipal Airport","latitude_deg":"35.94039917","longitude_deg":"-89.83080292","elevation_ft":"255","continent":"NA","iso_country":"US","iso_region":"US-AR","municipality":"Blytheville","scheduled_service":"no","gps_code":"KHKA","iata_code":"HKA","local_code":"HKA"}
{"id":"20058","ident":"KHKS","type":"small_airport","name":"Hawkins Field","latitude_deg":"32.33449936","longitude_deg":"-90.22219849","elevation_ft":"341","continent":"NA","iso_country":"US","iso_region":"US-MS","municipality":"Jackson","scheduled_service":"no","gps_code":"KHKS","iata_code":"HKS","local_code":"HKS"}
{"id":"3581","ident":"KHKY","type":"medium_airport","name":"Hickory Regional Airport","latitude_deg":"35.74110031","longitude_deg":"-81.38950348","elevation_ft":"1190","continent":"NA","iso_country":"US","iso_region":"US-NC","municipality":"Hickory","scheduled_service":"no","gps_code":"KHKY","iata_code":"HKY","local_code":"HKY"}
{"id":"313421","ident":"KHL","type":"closed","name":"Khan Jahan Ali Airport (under construction)","latitude_deg":"22.6486","longitude_deg":"89.6454","elevation_ft":"21","continent":"AS","iso_country":"BD","iso_region":"BD-4","municipality":"Bagerhat","scheduled_service":"no","gps_code":"","iata_code":"","local_code":""}
{"id":"20059","ident":"KHLB","type":"small_airport","name":"Hillenbrand Industries Airport","latitude_deg":"39.3445015","longitude_deg":"-85.25830078","elevation_ft":"973","continent":"NA","iso_country":"US","iso_region":"US-IN","municipality":"Batesville","scheduled_service":"no","gps_code":"KHLB","iata_code":"HLB","local_code":"HLB"}
{"id":"20060","ident":"KHLC","type":"small_airport","name":"Hill City Municipal Airport","latitude_deg":"39.37879944","longitude_deg":"-99.83149719","elevation_ft":"2238","continent":"NA","iso_country":"US","iso_region":"US-KS","municipality":"Hill City","scheduled_service":"no","gps_code":"KHLC","iata_code":"HLC","local_code":"HLC"}
{"id":"20061","ident":"KHLG","type":"medium_airport","name":"Wheeling Ohio County Airport","latitude_deg":"40.17499924","longitude_deg":"-80.64630127","elevation_ft":"1195","continent":"NA","iso_country":"US","iso_region":"US-WV","municipality":"Wheeling","scheduled_service":"no","gps_code":"KHLG","iata_code":"HLG","local_code":"HLG"}
{"id":"20062","ident":"KHLM","type":"small_airport","name":"Park Township Airport","latitude_deg":"42.795898","longitude_deg":"-86.162003","elevation_ft":"603","continent":"NA","iso_country":"US","iso_region":"US-MI","municipality":"Holland","scheduled_service":"no","gps_code":"HLM","iata_code":"","local_code":""}
{"id":"3582","ident":"KHLN","type":"medium_airport","name":"Helena Regional Airport","latitude_deg":"46.6068","longitude_deg":"-111.983002","elevation_ft":"3877","continent":"NA","iso_country":"US","iso_region":"US-MT","municipality":"Helena","scheduled_service":"yes","gps_code":"KHLN","iata_code":"HLN","local_code":"HLN"}
{"id":"3583","ident":"KHLR","type":"heliport","name":"Hood Army Air Field","latitude_deg":"31.1387","longitude_deg":"-97.7145","elevation_ft":"924","continent":"NA","iso_country":"US","iso_region":"US-TX","municipality":"Fort Cavazos (Killeen)","scheduled_service":"no","gps_code":"KHLR","iata_code":"HLR","local_code":"HLR"}
{"id":"20063","ident":"KHLX","type":"small_airport","name":"Twin County Airport","latitude_deg":"36.766102","longitude_deg":"-80.823601","elevation_ft":"2693","continent":"NA","iso_country":"US","iso_region":"US-VA","municipality":"Hillsville","scheduled_service":"no","gps_code":"KHLX","iata_code":"HLX","local_code":""}
{"id":"29958","ident":"KHMJ","type":"closed","name":"Homer Airport","latitude_deg":"40.02640152","longitude_deg":"-87.95249939","elevation_ft":"669","continent":"NA","iso_country":"US","iso_region":"US-IL","municipality":"no","scheduled_service":"","gps_code":"","iata_code":"","local_code":""}
{"id":"3584","ident":"KHMN","type":"medium_airport","name":"Holloman Air Force Base","latitude_deg":"32.852501","longitude_deg":"-106.107002","elevation_ft":"4093","continent":"NA","iso_country":"US","iso_region":"US-NM","municipality":"Alamogordo","scheduled_service":"no","gps_code":"KHMN","iata_code":"HMN","local_code":"HMN"}
{"id":"20064","ident":"KHMT","type":"small_airport","name":"Hemet Ryan Airport","latitude_deg":"33.73400116","longitude_deg":"-117.0230026","elevation_ft":"1512","continent":"NA","iso_country":"US","iso_region":"US-CA","municipality":"Hemet","scheduled_service":"no","gps_code":"KHMT","iata_code":"HMT","local_code":"HMT"}
{"id":"20065","ident":"KHMY","type":"heliport","name":"Muldrow Army Heliport","latitude_deg":"35.02640152","longitude_deg":"-97.2315979","elevation_ft":"1087","continent":"NA","iso_country":"US","iso_region":"US-OK","municipality":"Lexington","scheduled_service":"no","gps_code":"KHMY","iata_code":"HMY","local_code":""}
{"id":"20066","ident":"KHMZ","type":"small_airport","name":"Bedford County Airport","latitude_deg":"40.085952","longitude_deg":"-78.513359","elevation_ft":"1162","continent":"NA","iso_country":"US","iso_region":"US-PA","municipality":"Bedford","scheduled_service":"no","gps_code":"KHMZ","iata_code":"HMZ","local_code":""}
{"id":"20067","ident":"KHNB","type":"small_airport","name":"Huntingburg Airport","latitude_deg":"38.24900055","longitude_deg":"-86.9536972","elevation_ft":"529","continent":"NA","iso_country":"US","iso_region":"US-IN","municipality":"Huntingburg","scheduled_service":"no","gps_code":"KHNB","iata_code":"HNB","local_code":"HNB"}
{"id":"20068","ident":"KHND","type":"small_airport","name":"Henderson Executive Airport","latitude_deg":"35.97280121","longitude_deg":"-115.1340027","elevation_ft":"2492","continent":"NA","iso_country":"US","iso_region":"US-NV","municipality":"Las Vegas","scheduled_service":"no","gps_code":"KHND","iata_code":"HSH","local_code":"HND"}
{"id":"20069","ident":"KHNR","type":"small_airport","name":"Harlan Municipal Airport","latitude_deg":"41.58440018","longitude_deg":"-95.33959961","elevation_ft":"1231","continent":"NA","iso_country":"US","iso_region":"US-IA","municipality":"Harlan","scheduled_service":"no","gps_code":"KHNR","iata_code":"HNR","local_code":""}
{"id":"20070","ident":"KHNZ","type":"small_airport","name":"Henderson Oxford Airport","latitude_deg":"36.36159897","longitude_deg":"-78.52919769","elevation_ft":"526","continent":"NA","iso_country":"US","iso_region":"US-NC","municipality":"Oxford","scheduled_service":"no","gps_code":"KHNZ","iata_code":"HNZ","local_code":""}
{"id":"20071","ident":"KHOB","type":"medium_airport","name":"Lea County Regional Airport","latitude_deg":"32.6875","longitude_deg":"-103.217003","elevation_ft":"3661","continent":"NA","iso_country":"US","iso_region":"US-NM","municipality":"Hobbs","scheduled_service":"yes","gps_code":"KHOB","iata_code":"HOB","local_code":"HOB"}
{"id":"20072","ident":"KHOC","type":"small_airport","name":"Highland County Airport","latitude_deg":"39.18880081","longitude_deg":"-83.5388031","elevation_ft":"977","continent":"NA","iso_country":"US","iso_region":"US-OH","municipality":"Hillsboro","scheduled_service":"no","gps_code":"KHOC","iata_code":"HOC","local_code":""}
{"id":"20073","ident":"KHOE","type":"small_airport","name":"Homerville Airport","latitude_deg":"31.05590057","longitude_deg":"-82.77410126","elevation_ft":"186","continent":"NA","iso_country":"US","iso_region":"US-GA","municipality":"Homerville","scheduled_service":"no","gps_code":"KHOE","iata_code":"HOE","local_code":""}
{"id":"3585","ident":"KHON","type":"medium_airport","name":"Huron Regional Airport","latitude_deg":"44.3852005","longitude_deg":"-98.22850037","elevation_ft":"1289","continent":"NA","iso_country":"US","iso_region":"US-SD","municipality":"Huron","scheduled_service":"yes","gps_code":"KHON","iata_code":"HON","local_code":"HON"}
{"id":"3586","ident":"KHOP","type":"medium_airport","name":"Campbell Army Airfield (Fort Campbell)","latitude_deg":"36.674154","longitude_deg":"-87.48974","elevation_ft":"573","continent":"NA","iso_country":"US","iso_region":"US-KY","municipality":"Fort Campbell","scheduled_service":"no","gps_code":"KHOP","iata_code":"HOP","local_code":"HOP"}
{"id":"3587","ident":"KHOT","type":"medium_airport","name":"Memorial Field Airport","latitude_deg":"34.4788","longitude_deg":"-93.096262","elevation_ft":"540","continent":"NA","iso_country":"US","iso_region":"US-AR","municipality":"Hot Springs","scheduled_service":"yes","gps_code":"KHOT","iata_code":"HOT","local_code":"HOT"}
{"id":"3588","ident":"KHOU","type":"medium_airport","name":"William P Hobby Airport","latitude_deg":"29.645399","longitude_deg":"-95.2789","elevation_ft":"46","continent":"NA","iso_country":"US","iso_region":"US-TX","municipality":"Houston","scheduled_service":"yes","gps_code":"KHOU","iata_code":"HOU","local_code":"HOU"}
{"id":"3589","ident":"KHPN","type":"medium_airport","name":"Westchester County Airport","latitude_deg":"41.06700134","longitude_deg":"-73.70760345","elevation_ft":"439","continent":"NA","iso_country":"US","iso_region":"US-NY","municipality":"White Plains","scheduled_service":"yes","gps_code":"KHPN","iata_code":"HPN","local_code":"HPN"}
{"id":"20074","ident":"KHPT","type":"small_airport","name":"Hampton Municipal Airport","latitude_deg":"42.72370148","longitude_deg":"-93.2263031","elevation_ft":"1176","continent":"NA","iso_country":"US","iso_region":"US-IA","municipality":"Hampton","scheduled_service":"no","gps_code":"KHPT","iata_code":"HPT","local_code":"HPT"}
{"id":"20075","ident":"KHPY","type":"small_airport","name":"Baytown Airport","latitude_deg":"29.78610039","longitude_deg":"-94.95269775","elevation_ft":"34","continent":"NA","iso_country":"US","iso_region":"US-TX","municipality":"Baytown","scheduled_service":"no","gps_code":"KHPY","iata_code":"HPY","local_code":"HPY"}
{"id":"20076","ident":"KHQG","type":"small_airport","name":"Hugoton Municipal Airport","latitude_deg":"37.1631012","longitude_deg":"-101.3710022","elevation_ft":"3134","continent":"NA","iso_country":"US","iso_region":"US-KS","municipality":"Hugoton","scheduled_service":"no","gps_code":"KHQG","iata_code":"HQG","local_code":""}
{"id":"3590","ident":"KHQM","type":"medium_airport","name":"Bowerman Airport","latitude_deg":"46.97119904","longitude_deg":"-123.9369965","elevation_ft":"18","continent":"NA","iso_country":"US","iso_region":"US-WA","municipality":"Hoquiam","scheduled_service":"no","gps_code":"KHQM","iata_code":"HQM","local_code":"HQM"}
{"id":"20077","ident":"KHQU","type":"small_airport","name":"Thomson-McDuffie County Airport","latitude_deg":"33.52970123","longitude_deg":"-82.51650238","elevation_ft":"501","continent":"NA","iso_country":"US","iso_region":"US-GA","municipality":"Thomson","scheduled_service":"no","gps_code":"KHQU","iata_code":"HQU","local_code":""}
{"id":"20078","ident":"KHQZ","type":"small_airport","name":"Mesquite Metro Airport","latitude_deg":"32.74700165","longitude_deg":"-96.53040314","elevation_ft":"447","continent":"NA","iso_country":"US","iso_region":"US-TX","municipality":"Mesquite","scheduled_service":"no","gps_code":"KHQZ","iata_code":"HQZ","local_code":""}
{"id":"20079","ident":"KHRI","type":"small_airport","name":"Hermiston Municipal Airport","latitude_deg":"45.828223","longitude_deg":"-119.259024","elevation_ft":"644","continent":"NA","iso_country":"US","iso_region":"US-OR","municipality":"Hermiston","scheduled_service":"no","gps_code":"KHRI","iata_code":"HES","local_code":"HRI"}
{"id":"20080","ident":"KHRJ","type":"small_airport","name":"Harnett Regional Jetport Airport","latitude_deg":"35.379398","longitude_deg":"-78.733002","elevation_ft":"202","continent":"NA","iso_country":"US","iso_region":"US-NC","municipality":"Erwin","scheduled_service":"no","gps_code":"KHRJ","iata_code":"HRJ","local_code":""}
{"id":"3591","ident":"KHRL","type":"medium_airport","name":"Valley International Airport","latitude_deg":"26.22850037","longitude_deg":"-97.65440369","elevation_ft":"36","continent":"NA","iso_country":"US","iso_region":"US-TX","municipality":"Harlingen","scheduled_service":"yes","gps_code":"KHRL","iata_code":"HRL","local_code":"HRL"}
{"id":"3592","ident":"KHRO","type":"medium_airport","name":"Boone County Airport","latitude_deg":"36.26150131","longitude_deg":"-93.15470123","elevation_ft":"1365","continent":"NA","iso_country":"US","iso_region":"US-AR","municipality":"Harrison","scheduled_service":"yes","gps_code":"KHRO","iata_code":"HRO","local_code":"HRO"}
{"id":"20081","ident":"KHRT","type":"medium_airport","name":"Hurlburt Field","latitude_deg":"30.42779922","longitude_deg":"-86.68930054","elevation_ft":"38","continent":"NA","iso_country":"US","iso_region":"US-FL","municipality":"Mary Esther","scheduled_service":"no","gps_code":"KHRT","iata_code":"HRT","local_code":""}
{"id":"20082","ident":"KHRU","type":"small_airport","name":"Herington Regional Airport","latitude_deg":"38.69469833","longitude_deg":"-96.80799866","elevation_ft":"1480","continent":"NA","iso_country":"US","iso_region":"US-KS","municipality":"Herington","scheduled_service":"no","gps_code":"KHRU","iata_code":"HRU","local_code":""}
{"id":"20083","ident":"KHRX","type":"small_airport","name":"Hereford Municipal Airport","latitude_deg":"34.85779953","longitude_deg":"-102.3259964","elevation_ft":"3788","continent":"NA","iso_country":"US","iso_region":"US-TX","municipality":"Hereford","scheduled_service":"no","gps_code":"KHRX","iata_code":"HRX","local_code":""}
{"id":"20084","ident":"KHSA","type":"small_airport","name":"Stennis International Airport","latitude_deg":"30.36779976","longitude_deg":"-89.45459747","elevation_ft":"23","continent":"NA","iso_country":"US","iso_region":"US-MS","municipality":"Bay St Louis","scheduled_service":"no","gps_code":"KHSA","iata_code":"HSA","local_code":""}
{"id":"20085","ident":"KHSB","type":"small_airport","name":"Harrisburg-Raleigh Airport","latitude_deg":"37.811298","longitude_deg":"-88.550301","elevation_ft":"398","continent":"NA","iso_country":"US","iso_region":"US-IL","municipality":"Harrisburg","scheduled_service":"no","gps_code":"KHSB","iata_code":"HSB","local_code":"HSB"}
{"id":"20086","ident":"KHSD","type":"small_airport","name":"Sundance Airpark","latitude_deg":"35.60179901","longitude_deg":"-97.70619965","elevation_ft":"1193","continent":"NA","iso_country":"US","iso_region":"US-OK","municipality":"Oklahoma City","scheduled_service":"no","gps_code":"KHSD","iata_code":"HSD","local_code":""}
{"id":"20087","ident":"KHSE","type":"small_airport","name":"Billy Mitchell Airport","latitude_deg":"35.23279953","longitude_deg":"-75.61779785","elevation_ft":"17","continent":"NA","iso_country":"US","iso_region":"US-NC","municipality":"Hatteras","scheduled_service":"no","gps_code":"KHSE","iata_code":"HNC","local_code":"HSE"}
{"id":"324906","ident":"KHSG","type":"small_airport","name":"Hot Springs County Airport","latitude_deg":"43.713602","longitude_deg":"-108.389687","elevation_ft":"4895","continent":"NA","iso_country":"US","iso_region":"US-WY","municipality":"Thermopolis","scheduled_service":"no","gps_code":"KHSG","iata_code":"THP","local_code":"HSG"}
{"id":"20088","ident":"KHSI","type":"small_airport","name":"Hastings Municipal Airport","latitude_deg":"40.6053009","longitude_deg":"-98.42790222","elevation_ft":"1961","continent":"NA","iso_country":"US","iso_region":"US-NE","municipality":"Hastings","scheduled_service":"no","gps_code":"KHSI","iata_code":"HSI","local_code":"HSI"}
{"id":"20089","ident":"KHSP","type":"small_airport","name":"Ingalls Field","latitude_deg":"37.95140076","longitude_deg":"-79.83390045","elevation_ft":"3793","continent":"NA","iso_country":"US","iso_region":"US-VA","municipality":"Hot Springs","scheduled_service":"no","gps_code":"KHSP","iata_code":"HSP","local_code":"HSP"}
{"id":"20090","ident":"KHSR","type":"small_airport","name":"Hot Springs Municipal Airport","latitude_deg":"43.366615","longitude_deg":"-103.390545","elevation_ft":"3150","continent":"NA","iso_country":"US","iso_region":"US-SD","municipality":"Hot Springs","scheduled_service":"no","gps_code":"KHSR","iata_code":"HSR","local_code":""}
{"id":"3593","ident":"KHST","type":"medium_airport","name":"Homestead ARB Airport","latitude_deg":"25.48859978","longitude_deg":"-80.38359833","elevation_ft":"5","continent":"NA","iso_country":"US","iso_region":"US-FL","municipality":"Homestead","scheduled_service":"no","gps_code":"KHST","iata_code":"HST","local_code":"HST"}
{"id":"3594","ident":"KHSV","type":"medium_airport","name":"Huntsville International Carl T Jones Field","latitude_deg":"34.637199","longitude_deg":"-86.775101","elevation_ft":"629","continent":"NA","iso_country":"US","iso_region":"US-AL","municipality":"Huntsville","scheduled_service":"yes","gps_code":"KHSV","iata_code":"HSV","local_code":"HSV"}
{"id":"20091","ident":"KHTH","type":"small_airport","name":"Hawthorne Industrial Airport","latitude_deg":"38.544399","longitude_deg":"-118.634002","elevation_ft":"4215","continent":"NA","iso_country":"US","iso_region":"US-NV","municipality":"Hawthorne","scheduled_service":"no","gps_code":"KHTH","iata_code":"HTH","local_code":"HTH"}
{"id":"20092","ident":"KHTL","type":"small_airport","name":"Roscommon County - Blodgett Memorial Airport","latitude_deg":"44.359798","longitude_deg":"-84.671095","elevation_ft":"1150","continent":"NA","iso_country":"US","iso_region":"US-MI","municipality":"Houghton Lake","scheduled_service":"no","gps_code":"KHTL","iata_code":"HTL","local_code":"HTL"}
{"id":"20093","ident":"KHTO","type":"small_airport","name":"Town of East Hampton Airport","latitude_deg":"40.959954","longitude_deg":"-72.25105","elevation_ft":"55","continent":"NA","iso_country":"US","iso_region":"US-NY","municipality":"East Hampton","scheduled_service":"no","gps_code":"KJPX","iata_code":"HTO","local_code":"JPX"}
{"id":"3595","ident":"KHTS","type":"medium_airport","name":"Tri-State Airport / Milton J. Ferguson Field","latitude_deg":"38.366699","longitude_deg":"-82.557999","elevation_ft":"828","continent":"NA","iso_country":"US","iso_region":"US-WV","municipality":"Huntington","scheduled_service":"yes","gps_code":"KHTS","iata_code":"HTS","local_code":"HTS"}
{"id":"20094","ident":"KHTW","type":"small_airport","name":"Lawrence County Airpark","latitude_deg":"38.419082","longitude_deg":"-82.494922","elevation_ft":"568","continent":"NA","iso_country":"US","iso_region":"US-OH","municipality":"South Point","scheduled_service":"no","gps_code":"KHTW","iata_code":"HTW","local_code":"HTW"}
{"id":"3596","ident":"KHUA","type":"medium_airport","name":"Redstone Army Air Field","latitude_deg":"34.67869949","longitude_deg":"-86.68479919","elevation_ft":"684","continent":"NA","iso_country":"US","iso_region":"US-AL","municipality":"Redstone Arsnl Huntsville","scheduled_service":"no","gps_code":"KHUA","iata_code":"HUA","local_code":"HUA"}
{"id":"3597","ident":"KHUF","type":"medium_airport","name":"Terre Haute Regional Airport, Hulman Field","latitude_deg":"39.4515","longitude_deg":"-87.307602","elevation_ft":"589","continent":"NA","iso_country":"US","iso_region":"US-IN","municipality":"Terre Haute","scheduled_service":"no","gps_code":"KHUF","iata_code":"HUF","local_code":"HUF"}
{"id":"20095","ident":"KHUL","type":"medium_airport","name":"Houlton International Airport","latitude_deg":"46.12310028","longitude_deg":"-67.792099","elevation_ft":"489","continent":"NA","iso_country":"US","iso_region":"US-ME","municipality":"Houlton","scheduled_service":"no","gps_code":"KHUL","iata_code":"HUL","local_code":"HUL"}
{"id":"20096","ident":"KHUM","type":"small_airport","name":"Houma Terrebonne Airport","latitude_deg":"29.56649971","longitude_deg":"-90.66040039","elevation_ft":"10","continent":"NA","iso_country":"US","iso_region":"US-LA","municipality":"Houma","scheduled_service":"no","gps_code":"KHUM","iata_code":"HUM","local_code":"HUM"}
{"id":"3598","ident":"KHUT","type":"medium_airport","name":"Hutchinson Municipal Airport","latitude_deg":"38.06549835","longitude_deg":"-97.86060333","elevation_ft":"1543","continent":"NA","iso_country":"US","iso_region":"US-KS","municipality":"Hutchinson","scheduled_service":"no","gps_code":"KHUT","iata_code":"HUT","local_code":"HUT"}
{"id":"20097","ident":"KHVC","type":"small_airport","name":"Hopkinsville Christian County Airport","latitude_deg":"36.85699844","longitude_deg":"-87.45510101","elevation_ft":"564","continent":"NA","iso_country":"US","iso_region":"US-KY","municipality":"Hopkinsville","scheduled_service":"no","gps_code":"KHVC","iata_code":"HVC","local_code":""}
{"id":"20098","ident":"KHVE","type":"small_airport","name":"Hanksville Airport","latitude_deg":"38.41799927","longitude_deg":"-110.7040024","elevation_ft":"4444","continent":"NA","iso_country":"US","iso_region":"US-UT","municipality":"Hanksville","scheduled_service":"no","gps_code":"KHVE","iata_code":"HVE","local_code":"HVE"}
{"id":"3599","ident":"KHVN","type":"medium_airport","name":"Tweed New Haven Airport","latitude_deg":"41.26369858","longitude_deg":"-72.88680267","elevation_ft":"12","continent":"NA","iso_country":"US","iso_region":"US-CT","municipality":"New Haven","scheduled_service":"yes","gps_code":"KHVN","iata_code":"HVN","local_code":"HVN"}
{"id":"20099","ident":"KHVR","type":"medium_airport","name":"Havre City County Airport","latitude_deg":"48.542999","longitude_deg":"-109.762001","elevation_ft":"2591","continent":"NA","iso_country":"US","iso_region":"US-MT","municipality":"Havre","scheduled_service":"no","gps_code":"KHVR","iata_code":"HVR","local_code":"HVR"}
{"id":"20100","ident":"KHVS","type":"small_airport","name":"Hartsville Regional Airport","latitude_deg":"34.40309906","longitude_deg":"-80.11920166","elevation_ft":"364","continent":"NA","iso_country":"US","iso_region":"US-SC","municipality":"Hartsville","scheduled_service":"no","gps_code":"KHVS","iata_code":"HVS","local_code":"HVS"}
{"id":"29730","ident":"KHWC","type":"closed","name":"Bryan Airport","latitude_deg":"41.4739","longitude_deg":"-84.556702","elevation_ft":"771","continent":"NA","iso_country":"US","iso_region":"US-OH","municipality":"Bryan","scheduled_service":"no","gps_code":"","iata_code":"","local_code":""}
{"id":"20101","ident":"KHWD","type":"small_airport","name":"Hayward Executive Airport","latitude_deg":"37.65919876","longitude_deg":"-122.1220016","elevation_ft":"52","continent":"NA","iso_country":"US","iso_region":"US-CA","municipality":"Hayward","scheduled_service":"no","gps_code":"KHWD","iata_code":"HWD","local_code":"HWD"}
{"id":"20102","ident":"KHWO","type":"small_airport","name":"North Perry Airport","latitude_deg":"26.0012","longitude_deg":"-80.2407","elevation_ft":"8","continent":"NA","iso_country":"US","iso_region":"US-FL","municipality":"Hollywood","scheduled_service":"no","gps_code":"KHWO","iata_code":"HWO","local_code":"HWO"}
{"id":"20103","ident":"KHWQ","type":"small_airport","name":"Wheatland County At Harlowton Airport","latitude_deg":"46.448601","longitude_deg":"-109.852997","elevation_ft":"4311","continent":"NA","iso_country":"US","iso_region":"US-MT","municipality":"Harlowton","scheduled_service":"no","gps_code":"KHWQ","iata_code":"HWQ","local_code":""}
{"id":"20104","ident":"KHWV","type":"small_airport","name":"Brookhaven Calabro Airport","latitude_deg":"40.821899","longitude_deg":"-72.8694","elevation_ft":"81","continent":"NA","iso_country":"US","iso_region":"US-NY","municipality":"Shirley","scheduled_service":"no","gps_code":"KHWV","iata_code":"WSH","local_code":"HWV"}
{"id":"21359","ident":"KHWY","type":"small_airport","name":"Warrenton Fauquier Airport","latitude_deg":"38.5863","longitude_deg":"-77.710602","elevation_ft":"336","continent":"NA","iso_country":"US","iso_region":"US-VA","municipality":"Midland","scheduled_service":"no","gps_code":"KHWY","iata_code":"HWY","local_code":""}
{"id":"20105","ident":"KHXD","type":"small_airport","name":"Hilton Head Airport","latitude_deg":"32.2244","longitude_deg":"-80.697502","elevation_ft":"19","continent":"NA","iso_country":"US","iso_region":"US-SC","municipality":"Hilton Head Island","scheduled_service":"yes","gps_code":"KHXD","iata_code":"HHH","local_code":"HXD"}
{"id":"20106","ident":"KHXF","type":"small_airport","name":"Hartford Municipal Airport","latitude_deg":"43.34930038","longitude_deg":"-88.39109802","elevation_ft":"1069","continent":"NA","iso_country":"US","iso_region":"US-WI","municipality":"Hartford","scheduled_service":"no","gps_code":"KHXF","iata_code":"HXF","local_code":""}
{"id":"3600","ident":"KHYA","type":"medium_airport","name":"Cape Cod Gateway Airport","latitude_deg":"41.6693","longitude_deg":"-70.280403","elevation_ft":"54","continent":"NA","iso_country":"US","iso_region":"US-MA","municipality":"Hyannis","scheduled_service":"yes","gps_code":"KHYA","iata_code":"HYA","local_code":"HYA"}
{"id":"20107","ident":"KHYI","type":"medium_airport","name":"San Marcos Regional Airport","latitude_deg":"29.8927","longitude_deg":"-97.862999","elevation_ft":"597","continent":"NA","iso_country":"US","iso_region":"US-TX","municipality":"San Marcos","scheduled_service":"no","gps_code":"KHYI","iata_code":"HYI","local_code":""}
{"id":"20108","ident":"KHYR","type":"medium_airport","name":"Sawyer County Airport","latitude_deg":"46.02519989","longitude_deg":"-91.44429779","elevation_ft":"1216","continent":"NA","iso_country":"US","iso_region":"US-WI","municipality":"Hayward","scheduled_service":"no","gps_code":"KHYR","iata_code":"HYR","local_code":"HYR"}
{"id":"20109","ident":"KHYS","type":"medium_airport","name":"Hays Regional Airport","latitude_deg":"38.84220123","longitude_deg":"-99.27320099","elevation_ft":"1999","continent":"NA","iso_country":"US","iso_region":"US-KS","municipality":"Hays","scheduled_service":"no","gps_code":"KHYS","iata_code":"HYS","local_code":"HYS"}
{"id":"20110","ident":"KHYW","type":"small_airport","name":"Conway Horry County Airport","latitude_deg":"33.82849884","longitude_deg":"-79.12220001","elevation_ft":"35","continent":"NA","iso_country":"US","iso_region":"US-SC","municipality":"Conway","scheduled_service":"no","gps_code":"KHYW","iata_code":"HYW","local_code":""}
{"id":"20111","ident":"KHYX","type":"small_airport","name":"Saginaw County H.W. Browne Airport","latitude_deg":"43.4333992","longitude_deg":"-83.86229706","elevation_ft":"601","continent":"NA","iso_country":"US","iso_region":"US-MI","municipality":"Saginaw","scheduled_service":"no","gps_code":"KHYX","iata_code":"HYX","local_code":""}
{"id":"20112","ident":"KHZD","type":"small_airport","name":"Carroll County Airport","latitude_deg":"36.08929825","longitude_deg":"-88.46330261","elevation_ft":"497","continent":"NA","iso_country":"US","iso_region":"US-TN","municipality":"Huntingdon","scheduled_service":"no","gps_code":"KHZD","iata_code":"HZD","local_code":""}
{"id":"20113","ident":"KHZE","type":"small_airport","name":"Mercer County Regional Airport","latitude_deg":"47.28990173","longitude_deg":"-101.5810013","elevation_ft":"1814","continent":"NA","iso_country":"US","iso_region":"US-ND","municipality":"Hazen","scheduled_service":"no","gps_code":"KHZE","iata_code":"HZE","local_code":""}
{"id":"20114","ident":"KHZL","type":"small_airport","name":"Hazleton Municipal Airport","latitude_deg":"40.98680115","longitude_deg":"-75.99490356","elevation_ft":"1603","continent":"NA","iso_country":"US","iso_region":"US-PA","municipality":"Hazleton","scheduled_service":"no","gps_code":"KHZL","iata_code":"HZL","local_code":"HZL"}
{"id":"20115","ident":"KHZR","type":"small_airport","name":"False River Regional Airport","latitude_deg":"30.71829987","longitude_deg":"-91.47869873","elevation_ft":"40","continent":"NA","iso_country":"US","iso_region":"US-LA","municipality":"New Roads","scheduled_service":"no","gps_code":"KHZR","iata_code":"HZR","local_code":""}
{"id":"20116","ident":"KHZX","type":"small_airport","name":"Isedor Iverson Airport","latitude_deg":"46.61880112","longitude_deg":"-93.30979919","elevation_ft":"1228","continent":"NA","iso_country":"US","iso_region":"US-MN","municipality":"Mc Gregor","scheduled_service":"no","gps_code":"KHZX","iata_code":"HZX","local_code":""}
{"id":"20117","ident":"KHZY","type":"medium_airport","name":"Northeast Ohio Regional Airport","latitude_deg":"41.778","longitude_deg":"-80.695503","elevation_ft":"924","continent":"NA","iso_country":"US","iso_region":"US-OH","municipality":"Ashtabula","scheduled_service":"no","gps_code":"KHZY","iata_code":"JFN","local_code":"HZY"}
{"id":"323604","ident":"KI-0001","type":"closed","name":"Hawkins Field (Tarawa)","latitude_deg":"1.356247","longitude_deg":"172.930108","elevation_ft":"OC","continent":"KI","iso_country":"KI-G","iso_region":"Tarawa","municipality":"no","scheduled_service":"","gps_code":"","iata_code":"","local_code":""}
{"id":"348665","ident":"KI-0002","type":"closed","name":"Aeon Field","latitude_deg":"1.76283","longitude_deg":"-157.19466","elevation_ft":"16","continent":"OC","iso_country":"KI","iso_region":"KI-L","municipality":"Kiritimati","scheduled_service":"no","gps_code":"","iata_code":"","local_code":""}
{"id":"20118","ident":"KI06","type":"small_airport","name":"City of Tulia-Swisher County Municipal Airport","latitude_deg":"34.56679916","longitude_deg":"-101.7809982","elevation_ft":"3503","continent":"NA","iso_country":"US","iso_region":"US-TX","municipality":"Tulia","scheduled_service":"no","gps_code":"KI06","iata_code":"I06","local_code":""}
{"id":"20119","ident":"KI10","type":"small_airport","name":"Noble County Airport","latitude_deg":"39.80099869","longitude_deg":"-81.53630066","elevation_ft":"879","continent":"NA","iso_country":"US","iso_region":"US-OH","municipality":"Caldwell","scheduled_service":"no","gps_code":"KI10","iata_code":"I10","local_code":""}
{"id":"20120","ident":"KI12","type":"small_airport","name":"Sidney Municipal Airport","latitude_deg":"40.241402","longitude_deg":"-84.150902","elevation_ft":"1044","continent":"NA","iso_country":"US","iso_region":"US-OH","municipality":"Sidney","scheduled_service":"no","gps_code":"KSCA","iata_code":"SCA","local_code":""}
{"id":"20121","ident":"KI16","type":"small_airport","name":"Kee Field","latitude_deg":"37.600399","longitude_deg":"-81.559303","elevation_ft":"1783","continent":"NA","iso_country":"US","iso_region":"US-WV","municipality":"Pineville","scheduled_service":"noI16","gps_code":"","iata_code":"","local_code":""}
{"id":"20122","ident":"KI17","type":"small_airport","name":"Piqua Airport-Hartzell Field","latitude_deg":"40.16469955","longitude_deg":"-84.30840302","elevation_ft":"994","continent":"NA","iso_country":"US","iso_region":"US-OH","municipality":"Piqua","scheduled_service":"no","gps_code":"KI17","iata_code":"I17","local_code":""}
{"id":"20123","ident":"KI18","type":"small_airport","name":"Jackson County Airport","latitude_deg":"38.92979813","longitude_deg":"-81.81950378","elevation_ft":"758","continent":"NA","iso_country":"US","iso_region":"US-WV","municipality":"Ravenswood","scheduled_service":"no","gps_code":"KI18","iata_code":"I18","local_code":""}
{"id":"20125","ident":"KI22","type":"small_airport","name":"Randolph County Airport","latitude_deg":"40.16889954","longitude_deg":"-84.92569733","elevation_ft":"1119","continent":"NA","iso_country":"US","iso_region":"US-IN","municipality":"Winchester","scheduled_service":"no","gps_code":"KI22","iata_code":"I22","local_code":""}
{"id":"20126","ident":"KI23","type":"small_airport","name":"Fayette County Airport","latitude_deg":"39.57040024","longitude_deg":"-83.42050171","elevation_ft":"980","continent":"NA","iso_country":"US","iso_region":"US-OH","municipality":"Washington Court House","scheduled_service":"no","gps_code":"KI23","iata_code":"I23","local_code":""}
{"id":"20127","ident":"KI34","type":"small_airport","name":"Greensburg Municipal Airport","latitude_deg":"39.32690048","longitude_deg":"-85.52249908","elevation_ft":"912","continent":"NA","iso_country":"US","iso_region":"US-IN","municipality":"Greensburg","scheduled_service":"no","gps_code":"KI34","iata_code":"I34","local_code":""}
{"id":"20128","ident":"KI35","type":"small_airport","name":"Tucker Guthrie Memorial Airport","latitude_deg":"36.859352","longitude_deg":"-83.358523","elevation_ft":"1551","continent":"NA","iso_country":"US","iso_region":"US-KY","municipality":"Baxter","scheduled_service":"no","gps_code":"KI35","iata_code":"I35","local_code":""}
{"id":"20129","ident":"KI39","type":"medium_airport","name":"Central Kentucky Regional Airport","latitude_deg":"37.630798","longitude_deg":"-84.332298","elevation_ft":"1002","continent":"NA","iso_country":"US","iso_region":"US-KY","municipality":"Richmond","scheduled_service":"no","gps_code":"KRGA","iata_code":"RGA","local_code":""}
{"id":"20130","ident":"KI40","type":"small_airport","name":"Richard Downing Airport","latitude_deg":"40.30920029","longitude_deg":"-81.85340118","elevation_ft":"979","continent":"NA","iso_country":"US","iso_region":"US-OH","municipality":"Coshocton","scheduled_service":"no","gps_code":"I40","iata_code":"I40","local_code":""}
{"id":"20131","ident":"KI43","type":"small_airport","name":"James A Rhodes Airport","latitude_deg":"38.9814","longitude_deg":"-82.577904","elevation_ft":"726","continent":"NA","iso_country":"US","iso_region":"US-OH","municipality":"Jackson","scheduled_service":"no","gps_code":"KJRO","iata_code":"JRO","local_code":""}
{"id":"20132","ident":"KI50","type":"small_airport","name":"Stanton Airport","latitude_deg":"37.849866","longitude_deg":"-83.845704","elevation_ft":"651","continent":"NA","iso_country":"US","iso_region":"US-KY","municipality":"Stanton","scheduled_service":"noI50","gps_code":"","iata_code":"","local_code":""}
{"id":"20133","ident":"KI53","type":"small_airport","name":"Liberty-Casey County Airport","latitude_deg":"37.308691","longitude_deg":"-85.059304","elevation_ft":"1040","continent":"NA","iso_country":"US","iso_region":"US-KY","municipality":"Liberty","scheduled_service":"no","gps_code":"53KT","iata_code":"53KT","local_code":""}
{"id":"20134","ident":"KI54","type":"small_airport","name":"Mad River Airpark","latitude_deg":"40.0201","longitude_deg":"-83.828499","elevation_ft":"958","continent":"NA","iso_country":"US","iso_region":"US-OH","municipality":"Tremont City","scheduled_service":"noI54","gps_code":"","iata_code":"","local_code":""}
{"id":"20135","ident":"KI58","type":"small_airport","name":"Santa Rosa Route 66 Airport","latitude_deg":"34.93439865","longitude_deg":"-104.6429977","elevation_ft":"4792","continent":"NA","iso_country":"US","iso_region":"US-NM","municipality":"Santa Rosa","scheduled_service":"no","gps_code":"KSXU","iata_code":"SXU","local_code":""}
{"id":"20136","ident":"KI63","type":"small_airport","name":"Mount Sterling Municipal Airport","latitude_deg":"39.98749924","longitude_deg":"-90.80419922","elevation_ft":"734","continent":"NA","iso_country":"US","iso_region":"US-IL","municipality":"Mount Sterling","scheduled_service":"no","gps_code":"KI63","iata_code":"I63","local_code":""}
{"id":"20137","ident":"KI64","type":"small_airport","name":"Wakeman Airport","latitude_deg":"41.29309845","longitude_deg":"-82.37069702","elevation_ft":"848","continent":"NA","iso_country":"US","iso_region":"US-OH","municipality":"Wakeman","scheduled_service":"no","gps_code":"KI64","iata_code":"I64","local_code":""}
{"id":"20138","ident":"KI66","type":"small_airport","name":"Clinton County Airport","latitude_deg":"39.5033","longitude_deg":"-83.862801","elevation_ft":"1033","continent":"NA","iso_country":"US","iso_region":"US-OH","municipality":"Wilmington","scheduled_service":"no","gps_code":"KI66","iata_code":"I66","local_code":""}
{"id":"20139","ident":"KI67","type":"small_airport","name":"Cincinnati West Airport","latitude_deg":"39.25889969","longitude_deg":"-84.77429962","elevation_ft":"584","continent":"NA","iso_country":"US","iso_region":"US-OH","municipality":"Harrison","scheduled_service":"no","gps_code":"KI67","iata_code":"I67","local_code":""}
{"id":"20140","ident":"KI68","type":"small_airport","name":"Warren County Airport/John Lane Field","latitude_deg":"39.46220016","longitude_deg":"-84.25180054","elevation_ft":"898","continent":"NA","iso_country":"US","iso_region":"US-OH","municipality":"Lebanon","scheduled_service":"no","gps_code":"I68","iata_code":"I68","local_code":""}
{"id":"20141","ident":"KI69","type":"small_airport","name":"Clermont County Airport","latitude_deg":"39.07839966","longitude_deg":"-84.21019745","elevation_ft":"843","continent":"NA","iso_country":"US","iso_region":"US-OH","municipality":"Batavia","scheduled_service":"no","gps_code":"KI69","iata_code":"I69","local_code":""}
{"id":"20142","ident":"KI71","type":"small_airport","name":"Morgan County Regional Airport","latitude_deg":"39.654202","longitude_deg":"-81.8032","elevation_ft":"1000","continent":"NA","iso_country":"US","iso_region":"US-OH","municipality":"McConnelsville","scheduled_service":"no","gps_code":"I71","iata_code":"I71","local_code":""}
{"id":"20143","ident":"KI73","type":"small_airport","name":"Moraine Air Park","latitude_deg":"39.682215","longitude_deg":"-84.239042","elevation_ft":"720","continent":"NA","iso_country":"US","iso_region":"US-OH","municipality":"Dayton","scheduled_service":"noI73","gps_code":"","iata_code":"","local_code":""}
{"id":"20144","ident":"KI74","type":"small_airport","name":"Grimes Field","latitude_deg":"40.13259888","longitude_deg":"-83.75340271","elevation_ft":"1068","continent":"NA","iso_country":"US","iso_region":"US-OH","municipality":"Urbana","scheduled_service":"no","gps_code":"KI74","iata_code":"I74","local_code":""}
{"id":"20145","ident":"KI75","type":"small_airport","name":"Osceola Municipal Airport","latitude_deg":"41.05220032","longitude_deg":"-93.68969727","elevation_ft":"1110","continent":"NA","iso_country":"US","iso_region":"US-IA","municipality":"Osceola","scheduled_service":"no","gps_code":"KI75","iata_code":"I75","local_code":""}
{"id":"20146","ident":"KI76","type":"small_airport","name":"Peru Municipal Airport","latitude_deg":"40.78630066","longitude_deg":"-86.14640045","elevation_ft":"779","continent":"NA","iso_country":"US","iso_region":"US-IN","municipality":"Peru","scheduled_service":"no","gps_code":"KI76","iata_code":"I76","local_code":""}
{"id":"20147","ident":"KI86","type":"small_airport","name":"Perry County Airport","latitude_deg":"39.6916008","longitude_deg":"-82.19779968","elevation_ft":"1051","continent":"NA","iso_country":"US","iso_region":"US-OH","municipality":"New Lexington","scheduled_service":"no","gps_code":"KI86","iata_code":"I86","local_code":""}
